Restaurant Name,City,Address,Locality,Longitude,Latitude,Cuisines,Average Cost for two,Currency,Has Table booking,Has Online delivery,Is delivering now,Price range,Aggregate rating,Rating color,Rating text,Votes,Country
Le Petit Souffle,Makati City,"Third Floor, Century City Mall, Kalayaan Avenue, Poblacion, Makati City","Century City Mall, Poblacion, Makati City",121.027535,14.565443,"French, Japanese, Desserts",1100,Botswana Pula(P),Yes,No,No,3,4.8,Dark Green,Excellent,314,Phillipines
Izakaya Kikufuji,Makati City,"Little Tokyo, 2277 Chino Roces Avenue, Legaspi Village, Makati City","Little Tokyo, Legaspi Village, Makati City",121.014101,14.553708,Japanese,1200,Botswana Pula(P),Yes,No,No,3,4.5,Dark Green,Excellent,591,Phillipines
Heat - Edsa Shangri-La,Mandaluyong City,"Edsa Shangri-La, 1 Garden Way, Ortigas, Mandaluyong City","Edsa Shangri-La, Ortigas, Mandaluyong City",121.056831,14.581404,"Seafood, Asian, Filipino, Indian",4000,Botswana Pula(P),Yes,No,No,4,4.4,Green,Very Good,270,Phillipines
Ooma,Mandaluyong City,"Third Floor, Mega Fashion Hall, SM Megamall, Ortigas, Mandaluyong City","SM Megamall, Ortigas, Mandaluyong City",121.056475,14.585318,"Japanese, Sushi",1500,Botswana Pula(P),No,No,No,4,4.9,Dark Green,Excellent,365,Phillipines
Sambo Kojin,Mandaluyong City,"Third Floor, Mega Atrium, SM Megamall, Ortigas, Mandaluyong City","SM Megamall, Ortigas, Mandaluyong City",121.057508,14.58445,"Japanese, Korean",1500,Botswana Pula(P),Yes,No,No,4,4.8,Dark Green,Excellent,229,Phillipines
Din Tai Fung,Mandaluyong City,"Ground Floor, Mega Fashion Hall, SM Megamall, Ortigas, Mandaluyong City","SM Megamall, Ortigas, Mandaluyong City",121.056314,14.583764,Chinese,1000,Botswana Pula(P),No,No,No,3,4.4,Green,Very Good,336,Phillipines
Buffet 101,Pasay City,"Building K, SM By The Bay, Sunset Boulevard, Mall of Asia Complex (MOA), Pasay City","SM by the Bay, Mall of Asia Complex, Pasay City",120.9796667,14.53133333,"Asian, European",2000,Botswana Pula(P),Yes,No,No,4,4.0,Green,Very Good,520,Phillipines
Vikings,Pasay City,"Building B, By The Bay, Seaside Boulevard, Mall of Asia Complex (MOA), Pasay City","SM by the Bay, Mall of Asia Complex, Pasay City",120.9793333,14.54,"Seafood, Filipino, Asian, European",2000,Botswana Pula(P),Yes,No,No,4,4.2,Green,Very Good,677,Phillipines
Spiral - Sofitel Philippine Plaza Manila,Pasay City,"Plaza Level, Sofitel Philippine Plaza Manila, CCP Complex, Pasay City","Sofitel Philippine Plaza Manila, Pasay City",120.98009,14.55299,"European, Asian, Indian",6000,Botswana Pula(P),Yes,No,No,4,4.9,Dark Green,Excellent,621,Phillipines
Locavore,Pasig City,"Brixton Technology Center, 10 Brixton Street, Kapitolyo, Pasig City",Kapitolyo,121.056532,14.572041,Filipino,1100,Botswana Pula(P),Yes,No,No,3,4.8,Dark Green,Excellent,532,Phillipines
Silantro Fil-Mex,Pasig City,"75 East Capitol Drive, Kapitolyo, Pasig City",Kapitolyo,121.057916,14.567689,"Filipino, Mexican",800,Botswana Pula(P),No,No,No,3,4.9,Dark Green,Excellent,1070,Phillipines
Mad Mark's Creamery & Good Eats,Pasig City,"23 East Capitol Drive, Kapitolyo, Pasig City",Kapitolyo,121.06082,14.570849,"American, Ice Cream, Desserts",900,Botswana Pula(P),Yes,No,No,3,4.2,Green,Very Good,488,Phillipines
Silantro Fil-Mex,Quezon City,"Second Floor, UP Town Center, Katipunan Avenue, Diliman, Quezon City","UP Town Center, Diliman, Quezon City",121.075419,14.649503,"Filipino, Mexican",800,Botswana Pula(P),No,No,No,3,4.8,Dark Green,Excellent,294,Phillipines
Guevarra's,San Juan City,"387 P. Guevarra Corner Argonne Street, Addition Hills, San Juan City",Addition Hills,121.0335917,14.59345,Filipino,1000,Botswana Pula(P),Yes,No,No,3,4.2,Green,Very Good,458,Phillipines
Sodam Korean Restaurant,San Juan City,"17 J. Abad Santos Drive, Little Baguio, San Juan City",Little Baguio,121.03811,14.59889,Korean,700,Botswana Pula(P),No,No,No,3,4.3,Green,Very Good,223,Phillipines
Cafe Arabelle,Santa Rosa,"Ayala Mall, Solenad, Nuvali, Santa Rosa - Tagaytay Road, Don Jose, Santa Rosa","Nuvali, Don Jose, Santa Rosa",121.05704,14.237082,"Cafe, American, Italian, Filipino",800,Botswana Pula(P),No,No,No,3,3.6,Yellow,Good,29,Phillipines
Nonna's Pasta & Pizzeria,Santa Rosa,"Ground Floor, Building G, Solenad 3, Nuvali, Don Jose, Santa Rosa","Solenad 3, Don Jose, Santa Rosa",121.0565874,14.23767897,"Italian, Pizza",850,Botswana Pula(P),No,No,No,3,4.0,Green,Very Good,72,Phillipines
Balay Dako,Tagaytay City,"Aguinaldo Highway, Tagaytay City",Tagaytay City,120.951589,14.101834,Filipino,1200,Botswana Pula(P),Yes,No,No,3,4.5,Dark Green,Excellent,211,Phillipines
Hobing Korean Dessert Cafe,Taguig City,"Third Floor, BGC Stopover Pavillion, Rizal Drive Corner 31st Street, Bonifacio Global City, Taguig City","BGC Stopover Pavillion, Bonifacio Global City",121.045878,14.55436,"Cafe, Korean, Desserts",600,Botswana Pula(P),No,No,No,2,4.5,Dark Green,Excellent,118,Phillipines
Wildflour Cafe + Bakery,Taguig City,"Ground Floor, Netlima Building, 4th Avenue Corner 26th Street, Bonifacio Global City, Taguig City",Bonifacio Global City,121.04622,14.549337,"Cafe, Bakery, American, Italian",1500,Botswana Pula(P),Yes,No,No,4,4.4,Green,Very Good,392,Phillipines
NIU by Vikings,Taguig City,"Sixth Floor, SM Aura Premier, C5 Road Corner 26th Street, Bonifacio Global City, Taguig City","SM Aura Premier, Bonifacio Global City, Taguig City",121.053725,14.545858,"Seafood, American, Mediterranean, Japanese",3000,Botswana Pula(P),Yes,No,No,4,4.7,Dark Green,Excellent,535,Phillipines
The Food Hall by Todd English,Taguig City,"Fifth Floor, SM Aura Premier, C5 Corner 26th Street, Bonifacio Global City, Taguig City","SM Aura Premier, Bonifacio Global City, Taguig City",121.0534998,14.54565535,"American, Asian, Italian, Seafood",1800,Botswana Pula(P),Yes,No,No,4,4.5,Dark Green,Excellent,618,Phillipines
Chez Michou,Brasí_lia,"SCLN, 208, Bloco A, Loja 30, Asa Norte, Brasí_lia",Asa Norte,-47.88178889,-15.76414167,"Fast Food, French",55,Brazilian Real(R$),No,No,No,2,3.0,Orange,Average,6,Brazil
Cafí© Daniel Briand,Brasí_lia,"SCLN 104, Bloco A, Loja 26, Asa Norte, Brasí_lia",Asa Norte,-47.88266667,-15.7775,Cafe,30,Brazilian Real(R$),No,No,No,1,3.8,Yellow,Good,9,Brazil
Casa do Biscoito Mineiro,Brasí_lia,"SCLN 210, Bloco D, Loja 36/48, Asa Norte, Brasí_lia",Asa Norte,-47.88213611,-15.75747222,Bakery,45,Brazilian Real(R$),No,No,No,2,3.7,Yellow,Good,11,Brazil
Maori,Brasí_lia,"CLN 110, Bloco D, Loja 28, Asa Norte, Brasí_lia",Asa Norte,-47.88816667,-15.75883333,Brazilian,60,Brazilian Real(R$),No,No,No,3,3.8,Yellow,Good,11,Brazil
Pizza íæ Bessa,Brasí_lia,"SCS 214, Bloco C, Loja 40, Asa Sul, Brasí_lia",Asa Sul,-47.91566667,-15.83116667,Pizza,50,Brazilian Real(R$),No,No,No,2,3.2,Orange,Average,11,Brazil
Sushi Loko,Brasí_lia,"SCS 213, Bloco C, Loja 35, Asa Sul, Brasí_lia",Asa Sul,-47.91566667,-15.831,Japanese,80,Brazilian Real(R$),No,No,No,3,3.1,Orange,Average,10,Brazil
Beirute,Brasí_lia,"CLS 109, Bloco A, Loja 2/6, Asa Sul, Brasí_lia",Asa Sul,-47.9075,-15.82,Arabian,90,Brazilian Real(R$),No,No,No,3,3.7,Yellow,Good,8,Brazil
New Koto,Brasí_lia,"SCS 212, Bloco B, Loja 26, Asa Sul, Brasí_lia",Asa Sul,-47.91016667,-15.82733333,Japanese,200,Brazilian Real(R$),No,No,No,4,3.7,Yellow,Good,5,Brazil
Sandubas Cafí©,Brasí_lia,"Edifí_cio Josí© Severo, SCS 6, Bloco A, Loja 99, Asa Sul, Brasí_lia",Asa Sul,-47.89016667,-15.797,"Brazilian, Cafe",30,Brazilian Real(R$),No,No,No,1,0.0,White,Not rated,2,Brazil
Villa Tevere,Brasí_lia,"CLS 115, Bloco A, Loja 2, Asa Sul, Brasí_lia",Asa Sul,-47.92366667,-15.83133333,Italian,150,Brazilian Real(R$),No,No,No,4,4.1,Green,Very Good,12,Brazil
Rovereto,Brasí_lia,"Rua 13 Norte, Lote 4, íguas Claras, Brasí_lia",íguas Claras,-48.019,-15.83716667,Pizza,100,Brazilian Real(R$),No,No,No,4,3.1,Orange,Average,9,Brazil
Buena Carne,Brasí_lia,"Avenida Araucíçrias, 1325, Loja 19, íguas Claras, Brasí_lia",íguas Claras,-48.01909167,-15.839775,"Bar Food, Brazilian",60,Brazilian Real(R$),No,No,No,3,3.6,Yellow,Good,9,Brazil
Taco Pep,Brasí_lia,"Vila Malls, Avenida das Castanheiras, Lote 1060, íguas Claras, Brasí_lia",íguas Claras,-48.01666667,-15.83483333,"Mexican, Grill",100,Brazilian Real(R$),No,No,No,4,4.3,Green,Very Good,29,Brazil
Coco Bambu,Brasí_lia,"Brasí_lia Shopping - Piso 2, SCN 5, Bloco A, Asa Norte, Brasí_lia","Brasí_lia Shopping, Asa Norte",-47.889,-15.7865,International,230,Brazilian Real(R$),No,No,No,4,4.2,Green,Very Good,17,Brazil
Taypíç,Brasí_lia,"Fashion Park, Shis Ql 17, Bloco G, Loja 208, Lago Sul, Brasí_lia",Lago Sul,-47.872359,-15.860621,"Peruvian, Latin American",100,Brazilian Real(R$),No,No,No,4,3.6,Yellow,Good,5,Brazil
Outback Steakhouse,Brasí_lia,"ParkShopping - Piso 2, SAI/SO, írea 6580, Guaríç I, Brasí_lia","ParkShopping, Guaríç I",-47.95628333,-15.83451389,"American, Grill",150,Brazilian Real(R$),No,No,No,4,4.0,Green,Very Good,10,Brazil
Manzuíç,Brasí_lia,"Pontí£o Lago Sul, SHIS 10, Lote 9, Lago Sul, Brasí_lia","Pontí£o Lago Sul, Lago Sul",-47.87283333,-15.82566667,Seafood,240,Brazilian Real(R$),No,No,No,4,3.2,Orange,Average,6,Brazil
Coco Bambu,Brasí_lia,"SCES, Trecho 2, Conjunto 13/36, Setor de Clubes Esportivos Sul, Brasí_lia",Setor De Clubes Esportivos Sul,-47.8685,-15.819,International,230,Brazilian Real(R$),No,No,No,4,4.9,Dark Green,Excellent,30,Brazil
Gero,Brasí_lia,"Shopping Iguatemi - piso 1, SHIN CA 4, Lote A, Lago Norte, Brasí_lia","Shopping Iguatemi, Lago Norte",-47.885812,-15.720118,Italian,350,Brazilian Real(R$),No,No,No,4,3.3,Orange,Average,8,Brazil
Brazilian American Burgers,Brasí_lia,"CLSN 301, Bloco C, Loja 86, Sudoeste, Brasí_lia",Sudoeste,-47.92102778,-15.79753056,"American, Burger",50,Brazilian Real(R$),No,No,No,2,3.6,Yellow,Good,9,Brazil
Pesqueiro Eco Gourmet,Rio de Janeiro,"Praia da Barra da Tijuca, Avenida Lí_cio Costa, Ilha 25, Barra da Tijuca, Rio de Janeiro",Barra da Tijuca,-43.377,-23.0115,"Seafood, Bar Food, Brazilian",140,Brazilian Real(R$),No,No,No,4,4.0,Green,Very Good,7,Brazil
Confeitaria Colombo,Rio de Janeiro,"Rua Goní_alves Dias, 32, Centro, Rio de Janeiro",Centro,-43.178826,-22.905293,"Desserts, Cafe",100,Brazilian Real(R$),No,No,No,4,4.8,Dark Green,Excellent,29,Brazil
Bibi,Rio de Janeiro,"Rua Santa Clara, 36, Copabana, Rio de Janeiro",Copacabana,-43.18669167,-22.97207222,"Juices, Healthy Food",60,Brazilian Real(R$),No,No,No,3,4.7,Dark Green,Excellent,24,Brazil
Cervantes,Rio de Janeiro,"Avenida Prado Junior, 335 B, Copacabana, Rio de Janeiro",Copacabana,-43.17583333,-22.96216667,"Beverages, Bar Food, Fast Food",90,Brazilian Real(R$),No,No,No,3,4.5,Dark Green,Excellent,29,Brazil
Amir,Rio de Janeiro,"Rua Ronald de Carvalho, 55, Copacabana, Rio de Janeiro",Copacabana,-43.176,-22.96516667,Lebanese,170,Brazilian Real(R$),No,No,No,4,4.2,Green,Very Good,11,Brazil
TT Burger,Rio de Janeiro,"Galeria River, Rua Francisco Otaviano, 67, Copacabana, Rio de Janeiro","Galeria River, Copacabana",-43.191,-22.98683333,Burger,60,Brazilian Real(R$),No,No,No,3,4.8,Dark Green,Excellent,19,Brazil
Braseiro da Gíçvea,Rio de Janeiro,"Praí_a Santos Dumont, 116, Gíçvea, Rio de Janeiro",Gíçvea,-43.227042,-22.973507,"Brazilian, Bar Food",100,Brazilian Real(R$),No,No,No,4,4.9,Dark Green,Excellent,40,Brazil
Balada Mix,Rio de Janeiro,"Rua Aní_bal de Mendoní_a, 37, Ipanema, Rio de Janeiro",Ipanema,-43.211425,-22.98520833,"Brazilian, Healthy Food, Juices, Pizza",90,Brazilian Real(R$),No,No,No,3,4.6,Dark Green,Excellent,21,Brazil
Garota de Ipanema,Rio de Janeiro,"Rua Vinicius de Moraes, 49, Ipanema, Rio de Janeiro",Ipanema,-43.203,-22.98533333,"Brazilian, Bar Food",120,Brazilian Real(R$),No,No,No,4,4.9,Dark Green,Excellent,49,Brazil
Zazíç BistríÇ Tropical,Rio de Janeiro,"Rua Joana Angí©lica, 40, Ipanema, Rio de Janeiro",Ipanema,-43.20520833,-22.98531944,Brazilian,170,Brazilian Real(R$),No,No,No,4,4.6,Dark Green,Excellent,21,Brazil
Filí© de Ouro,Rio de Janeiro,"Rua Jardim Botí¢nico, 731, Jardim Botí¢nico, Lagoa, Rio de Janeiro",Lagoa,-43.219563,-22.966647,Brazilian,90,Brazilian Real(R$),No,No,No,3,4.3,Green,Very Good,14,Brazil
D.O.C Ristorante,Rio de Janeiro,"Le Monde, Bloco 3, Lojas A/B, Avenida das Amí©ricas, 3500, Barra da Tijuca, Rio de Janeiro","Le Monde, Barra da Tijuca",-43.34879167,-22.99991111,Italian,150,Brazilian Real(R$),No,No,No,4,4.0,Green,Very Good,5,Brazil
Sushi Leblon,Rio de Janeiro,"Rua Dias Ferreira, 256, Leblon, Rio de Janeiro",Leblon,-43.227,-22.98416667,Japanese,250,Brazilian Real(R$),No,No,No,4,4.6,Dark Green,Excellent,25,Brazil
Talho Capixaba,Rio de Janeiro,"Avenida Ataulfo de Paiva, 1022, Lojas A e B, Leblon, Rio de Janeiro",Leblon,-43.22566667,-22.98516667,"Bakery, Sandwich, Brazilian",120,Brazilian Real(R$),No,No,No,4,4.4,Green,Very Good,13,Brazil
Leme Light,Rio de Janeiro,"Rua Gustavo Sampaio, 798, Leme, Rio de Janeiro",Leme,-43.17279167,-22.963925,Brazilian,40,Brazilian Real(R$),No,No,No,2,4.2,Green,Very Good,7,Brazil
Shirley,Rio de Janeiro,"Rua Gustavo Sampaio, 610, Leme, Rio de Janeiro",Leme,-43.17126389,-22.96337222,"Brazilian, Seafood",250,Brazilian Real(R$),No,No,No,4,4.2,Green,Very Good,8,Brazil
Quiosque Chopp Brahma,Rio de Janeiro,"Madureira Shopping - Loja 289/290, Piso 2, Estrada do Portela, 222, Madureira, Rio de Janeiro, RJ",Madureira,-43.341164,-22.870413,"Bar Food, Brazilian",70,Brazilian Real(R$),No,No,No,3,0.0,White,Not rated,1,Brazil
Aprazí_vel,Rio de Janeiro,"Rua Aprazí_vel, 62, Santa Teresa, Rio de Janeiro",Santa Teresa,-43.18736944,-22.92481389,Brazilian,300,Brazilian Real(R$),No,No,No,4,4.7,Dark Green,Excellent,44,Brazil
Aconchego Carioca,Rio de Janeiro,"Rua Barí£o de Iguatemi, 379, Tijuca, Rio de Janeiro",Tijuca,-43.21551111,-22.91370833,"Brazilian, Bar Food",85,Brazilian Real(R$),No,No,No,3,4.6,Dark Green,Excellent,24,Brazil
Garota de Ipanema,Rio de Janeiro,"Avenida Joí£o Alves, 56, Urca, Rio de Janeiro",Urca,-43.16266667,-22.94783333,"Brazilian, Bar Food",80,Brazilian Real(R$),No,No,No,3,4.3,Green,Very Good,10,Brazil
Cantina Famiglia Mancini,Sí£o Paulo,"Rua Avanhandava, 81, Bela Vista, Sí£o Paulo 10000","Bela Vista, Centro",-46.64516667,-23.55066667,"Italian, Pizza",250,Brazilian Real(R$),No,No,No,4,4.5,Dark Green,Excellent,49,Brazil
Templo da Carne - Marcos Bassi,Sí£o Paulo,"Rua Treze de Maio, 668, Bela Vista, Sí£o Paulo 01327000","Bela Vista, Centro",-46.64633333,-23.559,"Steak, BBQ",250,Brazilian Real(R$),No,No,No,4,4.4,Green,Very Good,17,Brazil
Gopala Hari,Sí£o Paulo,"Rua Antonio Carlos, 429, Consolaí_í£o, Sí£o Paulo",Consolaí_í£o,-46.65866667,-23.55616667,Indian,70,Brazilian Real(R$),No,No,No,3,3.1,Orange,Average,5,Brazil
Jiquitaia,Sí£o Paulo,"Rua AntíÇnio Carlos, 268, Consolaí_í£o, Sí£o Paulo",Consolaí_í£o,-46.657523,-23.55671,Brazilian,100,Brazilian Real(R$),No,No,No,4,4.1,Green,Very Good,15,Brazil
Skye - Hotel Unique,Sí£o Paulo,"Hotel Unique, Avenida Brigadeiro Luí_s AntíÇnio, 4700, Jardim Paulista, Sí£o Paulo","Hotel Unique, Jardim Paulista",-46.666851,-23.581688,"Beverages, International",300,Brazilian Real(R$),No,No,No,4,4.8,Dark Green,Excellent,59,Brazil
Les 3 Brasseurs,Sí£o Paulo,"Rua Jesuí_no Arruda, 470, Itaim Bibi, Sí£o Paulo",Itaim Bibi,-46.67511,-23.582135,"French, Brazilian, Beverages",120,Brazilian Real(R$),No,No,No,4,4.6,Dark Green,Excellent,30,Brazil
Red Steak & Burger,Sí£o Paulo,"Rua Tabapuí£, 1417, Itaim Bibi, Sí£o Paulo",Itaim Bibi,-46.683888,-23.585324,"Brazilian, Grill",75,Brazilian Real(R$),No,No,No,3,3.9,Yellow,Good,5,Brazil
Cantinho da Gula,Sí£o Paulo,"Rua Pedroso Alvarenga, 522, Itaim Bibi, Sí£o Paulo, SP",Itaim Bibi,-46.67566667,-23.581,Brazilian,55,Brazilian Real(R$),No,No,No,2,0.0,White,Not rated,0,Brazil
Paris 6 Classique,Sí£o Paulo,"Rua Haddock Lobo, 1240, Cerqueira Cí©sar, Jardim Paulista, Sí£o Paulo",Jardim Paulista,-46.666041,-23.561568,French,200,Brazilian Real(R$),No,No,No,4,3.4,Orange,Average,73,Brazil
Kawa Sushi,Sí£o Paulo,"Alameda Lorena, 300, Jardim Paulista, Sí£o Paulo",Jardim Paulista,-46.657418,-23.571638,"Sushi, Japanese",120,Brazilian Real(R$),No,No,No,4,3.5,Yellow,Good,9,Brazil
A Figueira Rubaiyat,Sí£o Paulo,"Rua Haddock Lobo, 1738, Cerqueira Cí©sar, Jardim Paulista, Sí£o Paulo 10000",Jardim Paulista,-46.66983333,-23.5655,"BBQ, Grill, Brazilian",300,Brazilian Real(R$),No,No,No,4,4.3,Green,Very Good,39,Brazil
Kinoshita,Sí£o Paulo,"Rua Jacques Fí©lix, 405, Vila Nova Conceií_í£o, Moema, Sí£o Paulo",Moema,-46.67133333,-23.59233333,Sushi,230,Brazilian Real(R$),No,No,No,4,3.9,Yellow,Good,12,Brazil
Meats,Sí£o Paulo,"Rua dos Pinheiros, 320, Pinheiros, Sí£o Paulo",Pinheiros,-46.68133333,-23.56483333,"Gourmet Fast Food, Burger",120,Brazilian Real(R$),No,No,No,4,4.3,Green,Very Good,68,Brazil
Paribar,Sí£o Paulo,"Praí_a Dom Josí© Gaspar, 42, Repí_blica, Sí£o Paulo 10000",Repí_blica,-46.64159444,-23.54664167,"Brazilian, Italian",150,Brazilian Real(R$),No,No,No,4,4.3,Green,Very Good,46,Brazil
Terraí_o Itíçlia,Sí£o Paulo,"Edifí_cio Itíçlia - 41Á Andar, Avenida Ipiranga, 344, Repí_blica, Sí£o Paulo",Repí_blica,-46.643425,-23.545163,Italian,400,Brazilian Real(R$),No,No,No,4,4.4,Green,Very Good,37,Brazil
Divino Fogí£o,Sí£o Paulo,"Shopping MetríÇ Santa Cruz - Piso L2, Rua Domingos de Morais, 2564, Vila Mariana, Sí£o Paulo","Shopping MetríÇ Santa Cruz, Vila Mariana",-46.63716667,-23.5995,"Brazilian, Mineira",65,Brazilian Real(R$),No,No,No,3,0.0,White,Not rated,2,Brazil
Super Grill,Sí£o Paulo,"Shopping Morumbi - Piso Lazer, Avenida Roque Petroni Jí_nior, 1089, Santo Amaro, Sí£o Paulo","Shopping Morumbi, Santo Amaro",-46.698574,-23.622925,Brazilian,50,Brazilian Real(R$),No,No,No,2,0.0,White,Not rated,2,Brazil
Esquina Mocotí_,Sí£o Paulo,"Avenida Nossa Senhora do Loreto, 1104, Vila Medeiros, Vila Maria, Sí£o Paulo",Vila Maria,-46.581672,-23.486535,"Brazilian, North Eastern",100,Brazilian Real(R$),No,No,No,4,4.4,Green,Very Good,22,Brazil
Veloso,Sí£o Paulo,"Rua Conceií_í£o Veloso, 56, Vila Mariana, Sí£o Paulo",Vila Mariana,-46.63566667,-23.58516667,"Brazilian, Bar Food, Beverages",70,Brazilian Real(R$),No,No,No,3,4.6,Dark Green,Excellent,58,Brazil
Sainte Marie Gastronomia,Sí£o Paulo,"Rua Dom Joí£o Batista da Costa, 70, Vila SíÇnia, Sí£o Paulo",Vila SíÇnia,-46.746958,-23.609207,"Lebanese, Arabian",120,Brazilian Real(R$),No,No,No,4,4.1,Green,Very Good,11,Brazil
Austin's BBQ and Oyster Bar,Albany,"2820 Meredyth Dr, Albany, GA 31707",Albany,-84.221535,31.610387,"BBQ, Burger, Seafood",25,Dollar($),No,No,No,2,3.3,Orange,Average,35,United States
BJ's Country Buffet,Albany,"2401 Dawson Rd, Albany, GA 31707",Albany,-84.207095,31.608743,"American, BBQ",10,Dollar($),No,No,No,1,3.3,Orange,Average,25,United States
Cookie Shoppe,Albany,"115 N Jackson St, Albany, GA 31701",Albany,-84.154,31.5772,Others,0,Dollar($),No,No,No,1,3.4,Orange,Average,34,United States
El Vaquero Mexican Restaurant,Albany,"2700 Dawson Rd, Albany, GA 31707",Albany,-84.2194,31.6158,Mexican,0,Dollar($),No,No,No,1,3.4,Orange,Average,45,United States
Elements Coffee Co - Northwest,Albany,"2726 Ledo Rd Ste 10, Albany, GA 31707",Albany,-84.206944,31.622412,"Coffee and Tea, Sandwich",10,Dollar($),No,No,No,1,3.4,Orange,Average,26,United States
Pearly's Famous Country Cookng,Albany,"814 N Slappey Blvd, Albany, GA 31701",Albany,-84.1759,31.5882,Others,0,Dollar($),No,No,No,1,3.4,Orange,Average,36,United States
Chick-fil-A,Albany,"2703 Dawson Rd, Albany, GA 31707",Albany,-84.2193,31.616,Fast Food,10,Dollar($),No,No,No,1,3.5,Yellow,Good,67,United States
Guang Zhou Chinese Restaurant,Albany,"1214 N Westover Blvd, Albany, GA 31707",Albany,-84.2091458,31.6155186,"Asian, Chinese, Vegetarian",10,Dollar($),No,No,No,1,3.9,Yellow,Good,141,United States
Harvest Moon,Albany,"2347 Dawson Road, Albany, GA 31707",Albany,-84.205718,31.604905,"Pizza, Bar Food, Sandwich",25,Dollar($),No,No,No,2,3.7,Yellow,Good,147,United States
Henry Campbell's Steakhouse,Albany,"629 N. Westover Blvd, Albany, GA 31707",Albany,-84.223278,31.612121,"Steak, Tapas, Bar Food",70,Dollar($),No,No,No,4,3.5,Yellow,Good,51,United States
Hong Kong Cafe,Albany,"2700 Dawson Rd, Albany, GA 31707",Albany,-84.2191,31.6156,"Chinese, Seafood, Vegetarian",25,Dollar($),No,No,No,2,3.6,Yellow,Good,88,United States
House of China Restaurant II,Albany,"2526 Dawson Rd Ste A, Albany, GA 31707",Albany,-84.212,31.6104,Chinese,10,Dollar($),No,No,No,1,3.8,Yellow,Good,153,United States
Jimmie's Hot Dogs,Albany,"204 S Jackson St, Albany, GA 31701",Albany,-84.1534,31.5751,Others,10,Dollar($),No,No,No,1,3.9,Yellow,Good,160,United States
Locos Grill & Pub,Albany,"547 N Westover Blvd, Albany, GA 31707",Albany,-84.2228,31.6077,"American, Burger, Sandwich",25,Dollar($),No,No,No,2,3.5,Yellow,Good,57,United States
Longhorn Steakhouse,Albany,"2733 Dawson Rd, Albany, GA 31707",Albany,-84.2229,31.6185,"American, Steak",25,Dollar($),No,No,No,2,3.5,Yellow,Good,58,United States
Mikata Japanese Steakhouse,Albany,"2610 Dawson Rd, Albany, GA 31707",Albany,-84.2164,31.6137,"Japanese, Steak, Sushi",40,Dollar($),No,No,No,3,3.6,Yellow,Good,115,United States
Shogun Japanese Steak House,Albany,"629 N Westover Blvd, Albany, GA 31707",Albany,-84.2233,31.6118,"Japanese, Steak, Sushi",40,Dollar($),No,No,No,3,3.5,Yellow,Good,51,United States
The Catch Seafood Room & Oyster Bar,Albany,"2332 Whispering Pines Road, Albany, GA 31707",Albany,-84.205025,31.605882,"Seafood, Tapas, Bar Food",40,Dollar($),No,No,No,3,3.8,Yellow,Good,250,United States
Villa Gargano,Albany,"1604 N Slappey Blvd, Albany, GA 31701",Albany,-84.1757,31.5985,"Italian, Pizza",10,Dollar($),No,No,No,1,3.7,Yellow,Good,117,United States
3 Squares Diner,Albany,"202 W Franklin St, Sylvester, GA 31791",Sylvester,-83.8389,31.5308,"American, Breakfast, Diner",10,Dollar($),No,No,No,1,3.4,Orange,Average,20,United States
Whitebull Hotel,Armidale,"117 Marsh St, Armidale, NSW",Armidale,151.6688792,-30.5147169,"Bar Food, Steak",20,Dollar($),No,No,No,2,3.5,Yellow,Good,25,Australia
Last Resort Grill,Athens,"184 W Clayton St, Athens, GA 30601",Athens,-83.378273,33.957999,"American, Southern, Southwestern",40,Dollar($),No,No,No,3,4.5,Dark Green,Excellent,1821,United States
Mama's Boy Restaurant,Athens,"197 Oak St, GA 30601",Athens,-83.3654,33.9535,Southern,10,Dollar($),No,No,No,1,4.5,Dark Green,Excellent,849,United States
Sr. Sol 1,Athens,"175 Tallassee Rd, Athens, GA 30606",Athens,-83.4293,33.9652,Mexican,10,Dollar($),No,No,No,1,4.6,Dark Green,Excellent,917,United States
Choo Choo Eastside,Athens,"1055 Gaines School Rd Ste 100, Athens, GA 30605",Athens,-83.3389,33.9259,"Japanese, Korean",10,Dollar($),No,No,No,1,3.9,Yellow,Good,439,United States
The Grill,Athens,"171 College Ave, Athens, GA 30601",Athens,-83.375523,33.958198,"Breakfast, Burger, Sandwich",10,Dollar($),No,No,No,1,3.7,Yellow,Good,289,United States
Big City Bread Cafe,Athens,"393 N Finley St, Athens, GA 30601",Athens,-83.384004,33.959392,"Breakfast, Sandwich",10,Dollar($),No,No,No,1,4.3,Green,Very Good,558,United States
Clocked,Athens,"259 W Washington St, Athens, GA 30601",Athens,-83.3797,33.9584,"American, Burger, Sandwich",10,Dollar($),No,No,No,1,4.2,Green,Very Good,613,United States
DePalma's Italian Cafe - Downtown,Athens,"401 E Broad St, Athens, GA 30601",Athens,-83.373596,33.958112,"American, Italian, Pizza",25,Dollar($),No,No,No,2,4.0,Green,Very Good,353,United States
DePalma's Italian Cafe - East Side,Athens,"1965 Barnett Shoals Rd, Athens, GA 30605",Athens,-83.33995,33.924275,"American, Italian, Pizza",25,Dollar($),No,No,No,2,4.1,Green,Very Good,387,United States
Five & Ten,Athens,"1073 South Milledge Ave, Athens, GA 30605",Athens,-83.3872482,33.9415545,American,40,Dollar($),No,No,No,3,4.3,Green,Very Good,755,United States
Grit,Athens,"199 Prince Ave, Athens, GA 30601",Athens,-83.381625,33.960112,"International, Southern, Vegetarian",10,Dollar($),No,No,No,1,4.2,Green,Very Good,800,United States
Ike & Jane,Athens,"1307 Prince Ave, Athens, GA 30606",Athens,-83.400887,33.963296,Sandwich,10,Dollar($),No,No,No,1,4.1,Green,Very Good,350,United States
La Dolce Vita Ristorante,Athens,"323 E Broad St, Athens, GA 30601",Athens,-83.4075,33.9584,Italian,40,Dollar($),No,No,No,3,4.1,Green,Very Good,464,United States
Shokitini,Athens,"251 W Clayton St, Athens, GA 30601",Athens,-83.379251,33.957503,"Asian, Japanese, Sushi",25,Dollar($),No,No,No,2,4.2,Green,Very Good,550,United States
Taqueria Del Sol,Athens,"334 Prince Ave, Athens, GA 30601",Athens,-83.383605,33.960571,"Mexican, Spanish",10,Dollar($),No,No,No,1,4.1,Green,Very Good,543,United States
The National,Athens,"232 W. Hancock Ave., Athens, GA 30601",Athens,-83.37967,33.959468,"International, Southern",40,Dollar($),No,No,No,3,4.1,Green,Very Good,465,United States
The Royal Peasant,Athens,"1675 S. Lumpkin St., Athens, GA 30606",Athens,-83.38728,33.937502,Bar Food,10,Dollar($),No,No,No,1,4.4,Green,Very Good,546,United States
Transmetropolitan,Athens,"145 E Clayton St, Athens, GA 30601",Athens,-83.3764,33.9584,"Italian, Pizza, Sandwich",10,Dollar($),No,No,No,1,4.4,Green,Very Good,1098,United States
Trappeze Pub,Athens,"269 N Hull St, Athens, GA 30601",Athens,-83.378881,33.958363,"Burger, Bar Food",25,Dollar($),No,No,No,2,4.2,Green,Very Good,579,United States
Viva! Argentine Cuisine,Athens,"247 Prince Ave, Athens, GA 30601",Athens,-83.3828224,33.9600227,"Desserts, Latin American, Argentine",10,Dollar($),No,No,No,1,4.1,Green,Very Good,374,United States
Miyabi Kyoto Japanese Steak House,Augusta,"1315 Augusta West Pkwy, Augusta, GA 30909",Augusta,-82.0865,33.4721,"Chinese, Steak",40,Dollar($),No,No,No,3,4.6,Dark Green,Excellent,717,United States
Rae's Coastal Cafe,Augusta,"3208 W Wimbledon Dr, Augusta, GA 30909",Augusta,-82.0698,33.4791,"American, Caribbean, Seafood",40,Dollar($),No,No,No,3,4.9,Dark Green,Excellent,548,United States
The Bee's Knees,Augusta,"211 10th Street, Augusta, GA 30901",Augusta,-81.97,33.4765,"International, Tapas, Vegetarian",25,Dollar($),No,No,No,2,4.5,Dark Green,Excellent,631,United States
Boll Weevil Cafe,Augusta,"10 9th St, Augusta, GA 30901",Augusta,-81.9684,33.474,"Desserts, Sandwich, Southern",10,Dollar($),No,No,No,1,3.9,Yellow,Good,372,United States
Farmhaus Burger,Augusta,"1204 Broad St, Augusta, GA 30901",Augusta,-81.973006,33.477444,"American, Burger",25,Dollar($),No,No,No,2,3.9,Yellow,Good,201,United States
Manuel's Bread Cafe,Augusta,"505 Railroad Ave, North Augusta, GA 29841",Augusta,-81.965571,33.481779,"Breakfast, French",40,Dollar($),No,No,No,3,3.8,Yellow,Good,332,United States
Sconyers Bar B Que,Augusta,"2250 Sconyers Way, Augusta, GA 30906",Augusta,-82.0327,33.4086,BBQ,25,Dollar($),No,No,No,2,3.5,Yellow,Good,304,United States
Frog Hollow Tavern,Augusta,"1282 broad street, Augusta, GA 30901",Augusta,-81.974944,33.478231,American,40,Dollar($),No,No,No,3,4.3,Green,Very Good,368,United States
Giuseppe's Pizza & Italian Specialities,Augusta,"3690 Wheeler Rd, Augusta, GA 30909",Augusta,-82.096,33.4827,"Desserts, Italian, Pizza",25,Dollar($),No,No,No,2,4.1,Green,Very Good,430,United States
Mellow Mushroom,Augusta,"1167 Broad St, Augusta, GA 30901",Augusta,-81.9721,33.4778,"Italian, Pizza, Sandwich",25,Dollar($),No,No,No,2,4.4,Green,Very Good,433,United States
Nacho Mamas Burritos,Augusta,"976 Broad St, Augusta, GA 30901",Augusta,-81.9694,33.4764,Mexican,10,Dollar($),No,No,No,1,4.0,Green,Very Good,380,United States
Rhinehart's Oyster Bar,Augusta,"3051 Washington Rd, Augusta, GA 30907",Augusta,-82.0505,33.5133,"Bar Food, Sandwich, Seafood",25,Dollar($),No,No,No,2,4.0,Green,Very Good,456,United States
Takosushi,Augusta,"437 Highland Ave, Augusta, GA 30909",Augusta,-82.0301,33.4848,"Mexican, Southwestern, Sushi",40,Dollar($),No,No,No,3,4.2,Green,Very Good,647,United States
The Chop House,Augusta,"Augusta Mall, Augusta, GA 30909",Augusta,-82.080788,33.467201,Steak,40,Dollar($),No,No,No,3,4.0,Green,Very Good,360,United States
The Taj of India,Augusta,"502 Furys Ferry Rd, Augusta, GA 30907",Augusta,-82.0805493,33.5375868,Indian,25,Dollar($),No,No,No,2,4.0,Green,Very Good,227,United States
Augsburg Haus,Augusta,"4460 Washington Road, Evans, GA 30809",Evans,-82.143793,33.544342,German,25,Dollar($),No,No,No,2,3.9,Yellow,Good,290,United States
Pho Bac,Augusta,"4300 Towne Centre, Evans, GA 30809",Evans,-82.126161,33.532249,Vietnamese,10,Dollar($),No,No,No,1,4.1,Green,Very Good,270,United States
Rhinehart's Oyster Bar,Augusta,"303 North Bel Air Rd, Evans, GA 30809",Evans,-82.141284,33.521291,"Burger, Seafood",25,Dollar($),No,No,No,2,4.0,Green,Very Good,326,United States
Thai Kitchen,Augusta,"4357 Washington Road, Evans, GA 30809",Evans,-82.1328,33.5406,Thai,35,Dollar($),No,No,No,3,4.3,Green,Very Good,317,United States
El Kiosco Mexican Restaurant,Augusta,"5174 Wrightsboro Rd, Grovetown, GA 30813",Grovetown,-82.1997,33.4574,Mexican,10,Dollar($),No,No,No,1,4.2,Green,Very Good,300,United States
Taste of Balingup,Balingup,"63 South Western Hwy, Balingup, WA",Balingup,115.9844924,-33.7845269,Modern Australian,20,Dollar($),No,No,No,2,3.2,Orange,Average,21,Australia
Bridge Road Brewers,Beechworth,"Old Coach House 50 Ford St, Beechworth, Beechworth, VIC",Beechworth,146.685852,-36.360439,"Pizza, Bar Food",20,Dollar($),No,No,No,2,4.6,Dark Green,Excellent,237,Australia
Bardenay,Boise,"610 W Grove St, Boise, ID 83702",Boise,-116.2019,43.6138,"American, Bar Food",25,Dollar($),No,No,No,2,4.5,Dark Green,Excellent,879,United States
Flatbread Neapolitan Pizzeria,Boise,"800 W Main Suite 230, Boise, ID 83702",Boise,-116.203466,43.616068,"Italian, Pizza",25,Dollar($),No,No,No,2,4.6,Dark Green,Excellent,615,United States
Goldy's Breakfast Bistro,Boise,"108 S Capitol Blvd, Boise, ID 83702",Boise,-116.2023,43.6149,"Breakfast, Sandwich",25,Dollar($),No,No,No,2,4.5,Dark Green,Excellent,879,United States
Chandlers Steakhouse,Boise,"981 W Grove St, Boise, ID 83702",Boise,-116.2064,43.6157,"American, Seafood, Steak",70,Dollar($),No,No,No,4,3.9,Yellow,Good,379,United States
Bar Gernika Basque Pub & Eatery,Boise,"202 S Capitol Blvd, Boise, ID 83702",Boise,-116.2031,43.614,"European, Spanish",10,Dollar($),No,No,No,1,4.3,Green,Very Good,303,United States
Barbacoa Restaurant,Boise,"276 Bobwhite Ct, Boise, ID 83706",Boise,-116.185034,43.597235,"Latin American, Steak",70,Dollar($),No,No,No,4,4.1,Green,Very Good,538,United States
Big Jud's,Boise,"1289 Protest Rd, Boise, ID 83706",Boise,-116.2062,43.5945,"American, Burger, Sandwich",10,Dollar($),No,No,No,1,4.2,Green,Very Good,334,United States
Bittercreek Ale House,Boise,"246 N 8th St, Boise, ID 83702",Boise,-116.2022,43.6167,"American, Bar Food",25,Dollar($),No,No,No,2,4.3,Green,Very Good,555,United States
Boise Fry Company,Boise,"204 N Capitol Blvd, Boise, ID 83702",Boise,-116.193409,43.610279,"American, Burger",10,Dollar($),No,No,No,1,4.4,Green,Very Good,823,United States
Flying Pie Pizzaria,Boise,"6508 W Fairview Ave, Boise, ID 83704",Boise,-116.2625,43.6192,Pizza,25,Dollar($),No,No,No,2,4.1,Green,Very Good,550,United States
Fork,Boise,"199 N 8th St, Boise, ID 83702",Boise,-116.202845,43.616295,"American, Burger",25,Dollar($),No,No,No,2,4.4,Green,Very Good,650,United States
Guido's Original New York Style Pizza,Boise,"235 N 5th St, Boise, ID 83702",Boise,-116.199,43.615,Pizza,10,Dollar($),No,No,No,1,4.3,Green,Very Good,410,United States
Los Beto's,Boise,"5220 W Fairview Ave, Boise, ID 83706",Boise,-116.2463,43.6191,Mexican,10,Dollar($),No,No,No,1,4.4,Green,Very Good,660,United States
Lucianos Italian Restaurant,Boise,"11 N Orchard St, Boise, ID 83706",Boise,-116.245165,43.6051379,"Italian, Seafood, Vegetarian",25,Dollar($),No,No,No,2,4.4,Green,Very Good,360,United States
Mai Thai Restaurant,Boise,"750 W Idaho St, Boise, ID 83702",Boise,-116.2021,43.6162,"Sushi, Thai",40,Dollar($),No,No,No,3,4.0,Green,Very Good,340,United States
Shige Japanese Cuisine,Boise,"100 N 8th St, Boise, ID 83702",Boise,-116.2031,43.6156,"Japanese, Sushi, Teriyaki",25,Dollar($),No,No,No,2,4.1,Green,Very Good,393,United States
The Egg Factory,Boise,"8061 W Fairview Ave, Boise, ID 83704",Boise,-116.281809,43.619274,Breakfast,10,Dollar($),No,No,No,1,4.3,Green,Very Good,422,United States
Tucanos,Boise,"1388 S Entertainment Ave, Boise, ID 83709",Boise,-116.280614,43.591706,Brazilian,40,Dollar($),No,No,No,3,4.0,Green,Very Good,435,United States
Texas Roadhouse,Boise,"3801 E Fairview Avenue, Meridian, Boise, ID 83642",Meridian,-116.347304,43.619108,"American, BBQ, Steak",25,Dollar($),No,No,No,2,4.0,Green,Very Good,369,United States
Brick 29,Boise,"320 11th Avenue S, Nampa, ID 83651",Nampa,-116.5629,43.5777,American,40,Dollar($),No,No,No,3,4.4,Green,Very Good,487,United States
Winifreds,Cedar Rapids/Iowa City,"3847 1st Ave SE, Cedar Rapids, IA 52402",Cedar Rapids,-91.6336,42.0179,"American, Mediterranean, Seafood",40,Dollar($),No,No,No,3,3.7,Yellow,Good,98,United States
Biaggi's Ristorante Italiano,Cedar Rapids/Iowa City,"320 Collins Rd NE, Cedar Rapids, IA 52402",Cedar Rapids,-91.6327,42.0281,"Italian, Pizza",40,Dollar($),No,No,No,3,4.1,Green,Very Good,365,United States
El Super Burrito,Cedar Rapids/Iowa City,"3300 Johnson Ave NW, Cedar Rapids, IA 52405",Cedar Rapids,-91.7148,41.9748,Mexican,10,Dollar($),No,No,No,1,4.1,Green,Very Good,190,United States
Granite City Food & Brewery,Cedar Rapids/Iowa City,"4755 1st Ave SE, Cedar Rapids, IA 52402",Cedar Rapids,-91.6224,42.0249,"American, Breakfast, Burger",40,Dollar($),No,No,No,3,4.1,Green,Very Good,429,United States
Irish Democrat,Cedar Rapids/Iowa City,"3207 1st Ave SE, Cedar Rapids, IA 52402",Cedar Rapids,-91.6347,42.01,"American, BBQ, Burger",25,Dollar($),No,No,No,2,4.4,Green,Very Good,430,United States
Taste of India,Cedar Rapids/Iowa City,"1060 Old Marion Rd NE, Cedar Rapids, IA 52402",Cedar Rapids,-91.6499622,42.0215347,Indian,25,Dollar($),No,No,No,2,4.2,Green,Very Good,186,United States
Thai Moon Restaurant,Cedar Rapids/Iowa City,"4362 16th Ave SW, Cedar Rapids, IA 52404",Cedar Rapids,-91.7266,41.9639,"Chinese, Sushi, Thai",10,Dollar($),No,No,No,1,4.2,Green,Very Good,220,United States
Ting's Red Lantern,Cedar Rapids/Iowa City,"540 Boyson Rd NE, Cedar Rapids, IA 52402",Cedar Rapids,-91.6394,42.0468,Chinese,10,Dollar($),No,No,No,1,4.2,Green,Very Good,347,United States
Monica's,Cedar Rapids/Iowa City,"303 2nd Street, Coralville, IA 52241",Coralville,-91.569767,41.670466,"American, Italian, Pizza",25,Dollar($),No,No,No,2,3.8,Yellow,Good,161,United States
Exotic India,Cedar Rapids/Iowa City,"102 2nd Ave, Coralville, IA 52241",Coralville,-91.5687,41.6685,Indian,25,Dollar($),No,No,No,2,4.1,Green,Very Good,160,United States
Shorts Burger and Shine,Cedar Rapids/Iowa City,"18 S Clinton St, Iowa City, IA 52240",Iowa City,-91.534424,41.660982,Burger,10,Dollar($),No,No,No,1,4.9,Dark Green,Excellent,820,United States
The Hamburg Inn No. 2 Inc.,Cedar Rapids/Iowa City,"214 N Linn St, Iowa City, IA 52245",Iowa City,-91.531414,41.663849,"American, Breakfast, Burger",10,Dollar($),No,No,No,1,4.5,Dark Green,Excellent,488,United States
Bluebird Diner,Cedar Rapids/Iowa City,"330 E Market St, Iowa City, IA 52245",Iowa City,-91.531093,41.663751,"Breakfast, Diner",25,Dollar($),No,No,No,2,3.6,Yellow,Good,253,United States
Graze,Cedar Rapids/Iowa City,"115 East College St, Iowa City, IA 52240",Iowa City,-91.534302,41.658691,"American, International, Sushi",40,Dollar($),No,No,No,3,3.8,Yellow,Good,220,United States
A & A Pagliai's Pizza,Cedar Rapids/Iowa City,"302 E Bloomington St, Iowa City, IA 52245",Iowa City,-91.5314,41.6648,Pizza,25,Dollar($),No,No,No,2,4.3,Green,Very Good,485,United States
Atlas World Grill,Cedar Rapids/Iowa City,"127 Iowa Ave, Iowa City, IA 52240",Iowa City,-91.5341,41.661,International,40,Dollar($),No,No,No,3,4.3,Green,Very Good,428,United States
BlackStone,Cedar Rapids/Iowa City,"503 Westbury Dr Ste 1, Iowa City, IA 52245",Iowa City,-91.482165,41.667742,"American, Breakfast",25,Dollar($),No,No,No,2,4.1,Green,Very Good,294,United States
Devotay,Cedar Rapids/Iowa City,"117 N Linn St, Iowa City, IA 52245",Iowa City,-91.5318,41.6625,"Mediterranean, Tapas, Vegetarian",40,Dollar($),No,No,No,3,4.0,Green,Very Good,380,United States
Jimmy Jack's Rib Shack,Cedar Rapids/Iowa City,"1940 Lower Muscatine Rd, Iowa City, IA 52240",Iowa City,-91.5074,41.6428,BBQ,25,Dollar($),No,No,No,2,4.2,Green,Very Good,259,United States
Zoeys Pizzeria,Cedar Rapids/Iowa City,"690 10th St, Marion, IA 52302",Marion,-91.5995,42.0331,"Pizza, Sandwich",25,Dollar($),No,No,No,2,4.7,Dark Green,Excellent,433,United States
Tokyo Sushi,Chatham-Kent,"150 Richmond St, Chatham-Kent, ON N7M2V2",Chatham-Kent,-82.188438,42.397683,"Japanese, Sushi",25,Dollar($),No,No,No,2,3.7,Yellow,Good,176,Canada
Berry Patch Restaurant,Clatskanie,"49289 Us-30, Westport, OR 97016",Clatskanie,-123.368151,46.126967,"American, Breakfast, Desserts",10,Dollar($),No,No,No,1,4.3,Green,Very Good,96,United States
Sakura Sushi & Grill,Cochrane,"130 Quarry Street, Unit 20, Cochrane, AB T4C 0W5",Cochrane,-114.472474,51.183934,"Asian, Japanese",25,Dollar($),No,No,No,2,3.1,Orange,Average,6,United States
Uptown Vietnam cuisine,Columbus,"1250 Broadway, Columbus, GA 31901",Columbus,-84.992671,32.470315,"Asian, Vietnamese",10,Dollar($),No,No,No,1,3.3,Orange,Average,33,United States
Cafe Le Rue @ The Landings,Columbus,"2523 Airport Thruway, Columbus, GA 31904",Columbus,-84.95591,32.519247,"American, Seafood, Cajun",25,Dollar($),No,No,No,2,4.6,Dark Green,Excellent,489,United States
Mark's City Grille,Columbus,"7160 moon road, Columbus, GA 31909",Columbus,-84.927047,32.555591,American,25,Dollar($),No,No,No,2,4.5,Dark Green,Excellent,345,United States
B Merrell's,Columbus,"7600 Veterans Pkwy, Columbus, GA 31909",Columbus,-84.9436,32.5577,"Burger, Bar Food, Southern",25,Dollar($),No,No,No,2,3.8,Yellow,Good,149,United States
Cannon Brewpub,Columbus,"1041 Broadway, Columbus, GA 31901",Columbus,-84.9936,32.4656,"Pizza, Bar Food",25,Dollar($),No,No,No,2,3.9,Yellow,Good,330,United States
Fuji Japanese Steak House,Columbus,"6499 Veterans Pkwy, Columbus, GA 31909",Columbus,-84.954984,32.5382197,"Japanese, Steak",40,Dollar($),No,No,No,3,3.9,Yellow,Good,247,United States
Ruth Ann's Family Restaurant,Columbus,"941 Veterans Parkway, Columbus, GA 31901",Columbus,-84.9876,32.4637,"Breakfast, Diner, Southern",10,Dollar($),No,No,No,1,3.7,Yellow,Good,123,United States
Samurai Japanese Cuisine & Sushi Bar,Columbus,"1009 Broadway, Columbus, GA 31901",Columbus,-84.9933631,32.4652417,"Japanese, Steak, Sushi",40,Dollar($),No,No,No,3,3.6,Yellow,Good,109,United States
Wasabi Sushi and Thai,Columbus,"1639 Bradley Park Dr, Columbus, GA 31904",Columbus,-84.96661,32.534002,"Japanese, Sushi, Thai",40,Dollar($),No,No,No,3,3.7,Yellow,Good,134,United States
Buckhead Bar and Grill,Columbus,"5010 Armour Rd, Columbus, GA 31904",Columbus,-84.95367,32.513154,"Seafood, Steak, Vegetarian",40,Dollar($),No,No,No,3,4.2,Green,Very Good,722,United States
Burt's Butcher Shoppe and Eatery,Columbus,"2932 Warm Springs Rd, Columbus, GA 31909",Columbus,-84.947569,32.504657,Steak,25,Dollar($),No,No,No,2,4.3,Green,Very Good,213,United States
Chef Lee's Peking Restaurant,Columbus,"6100 Bradley Park Dr, Columbus, GA 31904",Columbus,-84.9607,32.5393,Chinese,25,Dollar($),No,No,No,2,4.0,Green,Very Good,335,United States
Country's Barbecue,Columbus,"3137 Mercury Dr, Columbus, GA 31906",Columbus,-84.9464,32.4792,"BBQ, Southern",25,Dollar($),No,No,No,2,4.0,Green,Very Good,353,United States
Deorio's,Columbus,"3201 Macon Rd Ste 167, Columbus, GA 31906",Columbus,-84.9427,32.481,"Italian, Pizza",0,Dollar($),No,No,No,1,4.0,Green,Very Good,170,United States
Mellow Mushroom,Columbus,"6100 Veterans Pkwy, Columbus, GA 31909",Columbus,-84.9557,32.5321,Pizza,25,Dollar($),No,No,No,2,4.1,Green,Very Good,192,United States
Meritage,Columbus,"1039 1st Ave, Columbus, GA 31901",Columbus,-84.992093,32.466158,"American, Tapas",40,Dollar($),No,No,No,3,4.1,Green,Very Good,302,United States
Mongo The Mongolian Fire Pit,Columbus,"7830 - E Veterans Pkwy, Columbus, GA 31909",Columbus,-84.938698,32.560905,"Asian, Chinese",10,Dollar($),No,No,No,1,4.2,Green,Very Good,355,United States
The Black Cow,Columbus,"115 A 12th St, Columbus, GA 31901",Columbus,-84.991384,32.468757,American,25,Dollar($),No,No,No,2,4.3,Green,Very Good,287,United States
Wood Stone,Columbus,"5739 Whitesville Rd, Columbus, GA 31904",Columbus,-84.963201,32.527217,"Italian, Mediterranean, Pizza",40,Dollar($),No,No,No,3,4.0,Green,Very Good,264,United States
Hunter's Pub,Columbus,"11269 GA Hwy 219, Hamilton, GA 31811",Hamilton,-85.0213,32.7455,"American, Seafood, Steak",40,Dollar($),No,No,No,3,4.4,Green,Very Good,235,United States
Consort Restaurant,Consort,"4931 50th Street, Consort, AB T0C 1B0",Consort,-110.7746994,52.0082889,"Chinese, Canadian",25,Dollar($),No,No,No,2,3.0,Orange,Average,6,Canada
Thatcher's Barbeque and Grill,Dalton,"1214 N Wall St, Calhoun, GA 30701",Calhoun,-84.9396931,34.5251331,"American, BBQ, Southern",25,Dollar($),No,No,No,2,3.7,Yellow,Good,38,United States
Christian and Jake's Bistro,Dalton,"555 Georgia Hwy 53, Calhoun, GA 30701",Calhoun,-84.926258,34.474635,"Desserts, Sandwich",10,Dollar($),No,No,No,1,4.4,Green,Very Good,122,United States
Dub's High on the Hog,Dalton,"349 S Wall St, Calhoun, GA 30701",Calhoun,-84.9523921,34.4972488,BBQ,25,Dollar($),No,No,No,2,4.4,Green,Very Good,207,United States
Sierra's Mexican Restaurant,Dalton,"500 S. 3rd Avenue, Chatsworth, GA 30705",Chatsworth,-84.767911,34.752476,"Mexican, Tex-Mex",10,Dollar($),No,No,No,1,3.9,Yellow,Good,66,United States
Oakwood Cafe,Dalton,"201 West Cuyler Street, Dalton, GA 30720",Dalton,-84.969393,34.769686,"BBQ, Breakfast, Southern",10,Dollar($),No,No,No,1,4.9,Dark Green,Excellent,249,United States
Chili's Grill & Bar,Dalton,"881 College Dr, Dalton, GA 30720",Dalton,-85.0039,34.7643,American,25,Dollar($),No,No,No,2,3.8,Yellow,Good,63,United States
Fuji Japanese Steakhouse,Dalton,"1321 W Walnut Ave, Dalton, GA 30720",Dalton,-84.992342,34.759551,"Japanese, Sushi",40,Dollar($),No,No,No,3,3.8,Yellow,Good,145,United States
Las Palmas,Dalton,"1331 W Walnut Ave, Dalton, GA 30720",Dalton,-84.992924,34.759665,Mexican,10,Dollar($),No,No,No,1,3.8,Yellow,Good,83,United States
Tony's Italian Restaurant & Pizza,Dalton,"933 Market St, Dalton, GA 30720",Dalton,-84.999678,34.758645,Italian,25,Dollar($),No,No,No,2,3.7,Yellow,Good,116,United States
Filling Station,Dalton,"316 N Hamilton St, Dalton, GA 30720",Dalton,-84.9678,34.7742,"American, Burger",10,Dollar($),No,No,No,1,4.1,Green,Very Good,122,United States
Five Guys Burgers and Fries,Dalton,"1303 W. Walnut Ave., Dalton, GA 30720",Dalton,-84.990925,34.759273,Fast Food,10,Dollar($),No,No,No,1,4.1,Green,Very Good,142,United States
Los Pablos,Dalton,"1513 W Walnut Ave Ste 6, Dalton, GA 30720",Dalton,-84.9964,34.7604,Mexican,10,Dollar($),No,No,No,1,4.1,Green,Very Good,114,United States
Kobe Hibachi & Sushi,Dalton,"2603 Battlefield Pkwy, Fort Oglethorpe, GA 30742",Fort Oglethorpe,-85.2229101,34.9428786,"American, Japanese, Sushi",25,Dollar($),No,No,No,2,4.6,Dark Green,Excellent,214,United States
Soho Hibachi,Dalton,"1014 Battlefield Parkway, Fort Oglethorpe, GA 30742",Fort Oglethorpe,-85.246237,34.9528157,Japanese,10,Dollar($),No,No,No,1,4.3,Green,Very Good,116,United States
Thai Garden,Dalton,"685 Battlefield Pkwy, Fort Oglethorpe, GA 30742",Fort Oglethorpe,-85.2545,34.9546,Thai,25,Dollar($),No,No,No,2,4.2,Green,Very Good,111,United States
Southern Bliss Bakery,Dalton,"300 W Patton St., Lafayette, GA 30728",LaFayette,-85.294955,34.705093,"Desserts, Sandwich",10,Dollar($),No,No,No,1,3.7,Yellow,Good,25,United States
Bailey's Bar-B-Que,Dalton,"5540 Highway 41, Ringgold, GA 30736",Ringgold,-85.1321,34.9273,BBQ,10,Dollar($),No,No,No,1,4.1,Green,Very Good,128,United States
Farm To Fork,Dalton,"118 Remco Shops Lane, Ringgold, GA 30736",Ringgold,-85.130492,34.912109,"American, Diner, Southern",10,Dollar($),No,No,No,1,4.3,Green,Very Good,244,United States
Home Plate Grill,Dalton,"7807 Nashville St, Ringgold, GA 30736",Ringgold,-85.1079396,34.9151853,"American, BBQ, Southern",10,Dollar($),No,No,No,1,4.2,Green,Very Good,112,United States
Pie Slingers Pizzeria,Dalton,"56A Fieldstone Village Drive, Rock Spring, GA 30739",Rock Spring,-85.249727,34.851907,"Italian, Pizza",10,Dollar($),No,No,No,1,4.1,Green,Very Good,144,United States
Olive Tree Cafe,Davenport,"2513 53rd Avenue, Bettendorf, IA 52722",Bettendorf,-90.496986,41.574935,"Indian, Mediterranean, Middle Eastern",25,Dollar($),No,No,No,2,4.6,Dark Green,Excellent,166,United States
"Red Ginger Sushi, Grill & Bar",Davenport,"793 Middle Rd, Bettendorf, IA 52722",Bettendorf,-90.522479,41.53845,"Sushi, Teriyaki",40,Dollar($),No,No,No,3,4.5,Dark Green,Excellent,208,United States
Crust Stone Oven Pizza,Davenport,"2561 E 53rd Ave, Bettendorf, IA 52722",Bettendorf,-90.4912446,41.5747801,"Burger, Pizza",25,Dollar($),No,No,No,2,3.9,Yellow,Good,136,United States
Jimmy's Pancake House,Davenport,"2521 - 18th St., Bettendorf, IA 52722",Bettendorf,-90.504176,41.548746,"American, Breakfast, Greek",10,Dollar($),No,No,No,1,4.0,Green,Very Good,85,United States
Trattoria Tiramisu,Davenport,"1804 State St, Bettendorf, IA 52722",Bettendorf,-90.50709,41.525384,Italian,25,Dollar($),No,No,No,2,4.1,Green,Very Good,117,United States
Prairie Grille at SteepleGate Inn,Davenport,"100 W 76th St, Davenport, IA 52806",Davenport,-90.574088,41.593892,"American, Breakfast",25,Dollar($),No,No,No,2,3.4,Orange,Average,53,United States
Tantra Asian Bistro,Davenport,"589 East 53rd St, Davenport, IA 52807",Davenport,-90.565837,41.574459,Asian,25,Dollar($),No,No,No,2,4.9,Dark Green,Excellent,474,United States
Chick-fil-A,Davenport,"320 W Kimberly Rd, Davenport, IA 52806",Davenport,-90.5716,41.5604,Fast Food,10,Dollar($),No,No,No,1,3.9,Yellow,Good,125,United States
Duck City Bistro,Davenport,"115 E 3rd St, Davenport, IA 52801",Davenport,-90.5737,41.5223,"American, French",70,Dollar($),No,No,No,4,3.7,Yellow,Good,201,United States
Frick's Tap,Davenport,"1402 W 3rd Street, IA 52802",Davenport,-90.59466452,41.52253634,"American, Bar Food, BBQ",25,Dollar($),No,No,No,2,0.0,White,Not rated,2,United States
Los Agaves,Davenport,"4882 Utica Ridge Rd, Davenport, IA 52807",Davenport,-90.5154313,41.5709434,Mexican,25,Dollar($),No,No,No,2,0.0,White,Not rated,3,United States
Azteca,Davenport,"4811 N Brady St Ste 3, Davenport, IA 52806",Davenport,-90.5683,41.5699,Mexican,0,Dollar($),No,No,No,1,4.3,Green,Very Good,167,United States
China Cafe,Davenport,"3018 E 53rd St, Davenport, IA 52807",Davenport,-90.5321,41.5749,Chinese,25,Dollar($),No,No,No,2,4.0,Green,Very Good,112,United States
Exotic Thai Restaurant,Davenport,"2303 E 53rd St, Davenport, IA 52807",Davenport,-90.5432,41.5747,Thai,25,Dollar($),No,No,No,2,4.1,Green,Very Good,256,United States
Front Street Brewery,Davenport,"208 E River Dr, Davenport, IA 52801",Davenport,-90.572418,41.520389,American,10,Dollar($),No,No,No,1,4.3,Green,Very Good,123,United States
Granite City Food & Brewery,Davenport,"5270 Utica Ridge Rd, Davenport, IA 52807",Davenport,-90.5137,41.5745,American,25,Dollar($),No,No,No,2,4.0,Green,Very Good,199,United States
Los Agaves,Davenport,"3852 N Brady St, Davenport, IA 52806",Davenport,-90.5686,41.559,Mexican,25,Dollar($),No,No,No,2,4.1,Green,Very Good,157,United States
Machine Shed Restaurant,Davenport,"7250 Northwest Blvd, Davenport, IA 52806",Davenport,-90.6136,41.5944,American,25,Dollar($),No,No,No,2,4.1,Green,Very Good,100,United States
Osaka,Davenport,"4901 Utica Ridge Rd, Davenport, IA 52807",Davenport,-90.515175,41.570997,"Japanese, Sushi",40,Dollar($),No,No,No,3,4.2,Green,Very Good,141,United States
Texas Roadhouse,Davenport,"4005 E 53rd Street, Davenport, IA 52807",Davenport,-90.517,41.5747,"American, BBQ, Steak",25,Dollar($),No,No,No,2,4.2,Green,Very Good,197,United States
Hickory Park,Des Moines,"1404 S Duff Ave, Ames, IA 50010",Ames,-93.610084,42.010254,"BBQ, Burger, Desserts",25,Dollar($),No,No,No,2,4.5,Dark Green,Excellent,1025,United States
The Cafe,Des Moines,"2616 Northridge Pkwy, Ames, IA 50010",Ames,-93.643094,42.048779,"American, Coffee and Tea",25,Dollar($),No,No,No,2,4.9,Dark Green,Excellent,570,United States
Flying Mango,Des Moines,"4345 Hickman Rd, Des Moines, IA 50310",Beaverdale,-93.677638,41.614965,"BBQ, Caribbean, Cajun",40,Dollar($),No,No,No,3,4.5,Dark Green,Excellent,674,United States
Cool Basil,Des Moines,"8801 University Ave, Clive, IA 50325",Clive,-93.739573,41.600564,"Asian, Sushi, Thai",25,Dollar($),No,No,No,2,4.1,Green,Very Good,496,United States
HuHot Mongolian Grill,Des Moines,"4100 University Avenue, West Des Moines, IA 50266",Clive,-93.760027,41.60028,"Asian, Chinese",25,Dollar($),No,No,No,2,4.0,Green,Very Good,411,United States
Malo,Des Moines,"900 Mulberry Street, Des Moines, IA 50309",Downtown,-93.627896,41.583309,"Latin American, Mexican",25,Dollar($),No,No,No,2,3.2,Orange,Average,113,United States
Centro,Des Moines,"1007 Locust St, Des Moines, IA 50309",Downtown,-93.6300803,41.5857431,"Italian, Pizza",40,Dollar($),No,No,No,3,4.5,Dark Green,Excellent,1109,United States
Fong's Pizza,Des Moines,"223 4th Street, Des Moines, IA 50309",Downtown,-93.621631,41.585465,"Chinese, Pizza",25,Dollar($),No,No,No,2,4.6,Dark Green,Excellent,728,United States
A Dong Restaurant,Des Moines,"1511 High Street, Des Moines, IA 50309",Downtown,-93.637401,41.587219,"Asian, Vegetarian, Vietnamese, Bubble Tea",10,Dollar($),No,No,No,1,4.4,Green,Very Good,659,United States
Court Avenue Brewing Company,Des Moines,"309 Court Ave, Des Moines, IA 50309",Downtown,-93.620726,41.58536,"American, Pizza, Bar Food",40,Dollar($),No,No,No,3,4.2,Green,Very Good,370,United States
Django,Des Moines,"210 10th Street, Des Moines, IA 50309",Downtown,-93.629436,41.584027,French,40,Dollar($),No,No,No,3,4.3,Green,Very Good,532,United States
Miyabi 9,Des Moines,"512 E Grand Ave, Des Moines, IA 50309",East Village,-93.611366,41.590819,"Japanese, Sushi",25,Dollar($),No,No,No,2,4.8,Dark Green,Excellent,860,United States
Zombie Burger + Drink Lab,Des Moines,"300 E. Grand Ave., Des Moines, IA 50309",East Village,-93.61474,41.590106,"Burger, Desserts, Vegetarian",10,Dollar($),No,No,No,1,4.2,Green,Very Good,943,United States
Tursi's Latin King,Des Moines,"2200 Hubbell Ave, Des Moines, IA 50317",Fairground,-93.577383,41.601415,"American, Italian",70,Dollar($),No,No,No,4,4.1,Green,Very Good,476,United States
Tsing Tsao South,Des Moines,"4230 Fleur Dr, Des Moines, IA 50321",Greater South Side,-93.645245,41.545869,Chinese,10,Dollar($),No,No,No,1,4.1,Green,Very Good,218,United States
Bandit Burrito,Des Moines,"5340 Merle Hay Road, Johnston, IA 50131",Johnston,-93.6976773,41.6714654,"Breakfast, Mexican, Southwestern",10,Dollar($),No,No,No,1,4.0,Green,Very Good,214,United States
Jethro's BBQ,Des Moines,"3100 Forest Ave, Des Moines, IA 50311",Kingman Place Historic District,-93.659797,41.603901,"American, BBQ",25,Dollar($),No,No,No,2,4.3,Green,Very Good,699,United States
The Machine Shed Restaurant,Des Moines,"11151 Hickman Road, Urbandale, IA 50322",Urbandale,-93.772033,41.615083,"American, Breakfast",25,Dollar($),No,No,No,2,3.8,Yellow,Good,308,United States
Mi Patria,Des Moines,"1410 22nd St., West Des Moines, IA 50266",West Des Moines,-93.73624,41.594039,Latin American,25,Dollar($),No,No,No,2,4.0,Green,Very Good,157,United States
Waterfront Seafood Market,Des Moines,"2900 University Ave, West Des Moines, IA 50266",West Des Moines,-93.7441981,41.5991771,"Seafood, Sushi",40,Dollar($),No,No,No,3,4.2,Green,Very Good,530,United States
The Giggling Goat,Dicky Beach,"14 Beerburrum St, Dicky Beach, QLD",Dicky Beach,153.137401,-26.783576,"Coffee and Tea, Tea, Modern Australian",7,Dollar($),No,No,No,1,3.6,Yellow,Good,29,Australia
Burnt Toast Cafe,Dubuque,"1220 Iowa St, Dubuque, IA 52001",Dubuque,-90.667668,42.504759,Breakfast,10,Dollar($),No,No,No,1,3.4,Orange,Average,33,United States
Catfish Charlie's,Dubuque,"1630 E 16th St, Dubuque, IA 52001",Dubuque,-90.6499328,42.5124724,Seafood,25,Dollar($),No,No,No,2,3.3,Orange,Average,40,United States
Salsa's Mexican Restaurant,Dubuque,"1091 Main St, Dubuque, IA 52001",Dubuque,-90.6684746,42.5032004,Mexican,10,Dollar($),No,No,No,1,3.4,Orange,Average,153,United States
Tony Roma's,Dubuque,"350 Bell St, Dubuque, IA 52001",Dubuque,-90.658609,42.496464,"American, BBQ, Seafood",25,Dollar($),No,No,No,2,3.3,Orange,Average,65,United States
Vinny Vanucchi's,Dubuque,"180 Main Street, Dubuque, IA 52001",Dubuque,-90.664029,42.495689,Italian,25,Dollar($),No,No,No,2,3.4,Orange,Average,58,United States
Champps Americana,Dubuque,"3100 Dodge St., Dubuque, IA 52003",Dubuque,-90.715247,42.492018,"American, Burger, Sandwich",25,Dollar($),No,No,No,2,3.5,Yellow,Good,100,United States
Fiesta Cancun,Dubuque,"2515 NW Arterial, Dubuque, IA 52002",Dubuque,-90.740213,42.49092,Mexican,10,Dollar($),No,No,No,1,3.6,Yellow,Good,156,United States
Happy Joe's Pizza & Ice Cream,Dubuque,"855 Century Dr, Dubuque, IA 52002",Dubuque,-90.7264,42.4955,"Desserts, Pizza, Ice Cream",0,Dollar($),No,No,No,1,3.5,Yellow,Good,74,United States
Houlihan's,Dubuque,"1795 Greyhound Park Rd, Dubuque, IA 52001",Dubuque,-90.645294,42.516621,"American, Burger",25,Dollar($),No,No,No,2,3.6,Yellow,Good,117,United States
Ichiban Hibachi Steakhouse & Sushi Bar,Dubuque,"3187 University Ave, Dubuque, IA 52001",Dubuque,-90.712084,42.492963,"Japanese, Steak, Sushi",40,Dollar($),No,No,No,3,3.7,Yellow,Good,83,United States
Kalmes Breaktime Bar & Grill,Dubuque,"1097 Jackson St, Dubuque, IA 52001",Dubuque,-90.6646,42.5043,"American, Burger",25,Dollar($),No,No,No,2,3.6,Yellow,Good,48,United States
L. May Eatery,Dubuque,"1072 Main St, Dubuque, IA 52001",Dubuque,-90.668164,42.503075,"International, Pizza",40,Dollar($),No,No,No,3,3.8,Yellow,Good,198,United States
Los Aztecas,Dubuque,"2700 Dodge St, Dubuque, IA 52003",Dubuque,-90.7055,42.4916,Mexican,10,Dollar($),No,No,No,1,3.5,Yellow,Good,126,United States
Manna Java World Cafe,Dubuque,"700 Locust St, Dubuque, IA 52001",Dubuque,-90.6677349,42.500191,"Breakfast, Pizza",10,Dollar($),No,No,No,1,3.5,Yellow,Good,119,United States
Mario's Italian Restaurant,Dubuque,"1298 Main St, Dubuque, IA 52001",Dubuque,-90.6691,42.5048,"American, Italian",25,Dollar($),No,No,No,2,3.6,Yellow,Good,140,United States
Pepper Sprout Incorporated,Dubuque,"378 Main St, Dubuque, IA 52001",Dubuque,-90.6651,42.4974,American,40,Dollar($),No,No,No,3,3.6,Yellow,Good,159,United States
Shot Tower Inn,Dubuque,"290 Locust St, Dubuque, IA 52001",Dubuque,-90.6658,42.4963,"Italian, Pizza",25,Dollar($),No,No,No,2,3.6,Yellow,Good,131,United States
Sunshine Family Restaurant,Dubuque,"401 Central Ave, Dubuque, IA 52001",Dubuque,-90.663686,42.4982789,"American, Breakfast, Burger",10,Dollar($),No,No,No,1,3.5,Yellow,Good,60,United States
Watershed Cafe,Dubuque,"51 W 32nd Street, Dubuque, IA 52001",Dubuque,-90.684882,42.527556,"American, Burger, Pizza, Cafe",25,Dollar($),No,No,No,2,3.7,Yellow,Good,89,United States
Woodfire Grille,Dubuque,"301 Bell Street, Dubuque, IA 52001",Dubuque,-90.658988,42.496378,"American, Seafood, Steak",70,Dollar($),No,No,No,4,3.6,Yellow,Good,72,United States
The Belle General,East Ballina,"12 Shelly Beach Rd, East Ballina, NSW",East Ballina,153.593331,-28.862663,Cafe,20,Dollar($),No,No,No,2,4.1,Green,Very Good,56,Australia
Jehova es Mi Pastor Tacos y Burritos,Fernley,"135 W. Main Street, Fernley, NV 89408",Fernley,-119.252694,39.607515,Mexican,10,Dollar($),No,No,No,1,3.7,Yellow,Good,83,United States
Flaxton Gardens,Flaxton,"313 Flaxton Drive, Flaxton, QLD",Flaxton,152.8771473,-26.6521332,"Tea, Modern Australian",30,Dollar($),No,No,No,3,3.5,Yellow,Good,37,Australia
Bespoke Harvest,Forrest,"16 Grant St, Forrest, VIC",Forrest,143.714315,-38.517292,"Cafe, Australian",20,Dollar($),No,No,No,2,3.7,Yellow,Good,29,Australia
Houndstooth Grill & Tavern,Gainesville,"6323 Grand Hickory Dr Ste 200A, Braselton, GA 30517",Braselton,-83.8461,34.0901,"American, Sandwich, Seafood",25,Dollar($),No,No,No,2,4.4,Green,Very Good,239,United States
Hawg Wild BBQ & Catfish House,Gainesville,"515 Grant Street, Clarkesville, GA 30523",Clarkesville,-83.520693,34.61802,"BBQ, Burger, Seafood",10,Dollar($),No,No,No,1,4.1,Green,Very Good,235,United States
Bourbon Street Grille,Gainesville,"90 Public Sq N, Dahlonega, GA 30533",Dahlonega,-83.985353,34.532973,"American, Burger, Cajun",25,Dollar($),No,No,No,2,3.8,Yellow,Good,88,United States
Corkscrew Cafe,Gainesville,"51 W Main St, Dahlonega, GA 30533",Dahlonega,-83.9858,34.5318,Others,40,Dollar($),No,No,No,3,3.9,Yellow,Good,209,United States
Smokin Gold BBQ,Gainesville,"59 E Main St, Dahlonega, GA 30533",Dahlonega,-83.983939,34.533626,BBQ,10,Dollar($),No,No,No,1,3.9,Yellow,Good,133,United States
Hoka-Hoka Japanese Steak & Sushi,Gainesville,"617 North Grove Street, Dahlonega, GA 30533",Dahlonega,-83.989317,34.541044,"Chinese, Japanese, Thai",10,Dollar($),No,No,No,1,4.4,Green,Very Good,267,United States
Shenanigan's Irish Pub,Gainesville,"87 N. Chestatee St., Dahlonega, GA 30533",Dahlonega,-83.986119,34.533198,"Bar Food, Seafood, Vegetarian",25,Dollar($),No,No,No,2,4.1,Green,Very Good,171,United States
Fish Tales Lakeside Grille,Gainesville,"6330 Mitchell Street, Flowery Branch, GA 30542",Flowery Branch,-83.938024,34.183573,Seafood,25,Dollar($),No,No,No,2,3.8,Yellow,Good,107,United States
Antebellum,Gainesville,"5510 Church Street, Flowery Branch, GA 30542",Flowery Branch,-83.926217,34.185707,"American, Southern",40,Dollar($),No,No,No,3,4.3,Green,Very Good,164,United States
Moonie's Texas Barbecue,Gainesville,"5545 Atlanta Highway, Flowery Branch, GA 30542",Flowery Branch,-83.927794,34.180043,"BBQ, Sandwich",10,Dollar($),No,No,No,1,4.1,Green,Very Good,182,United States
Atlanta Highway Seafood Market,Gainesville,"227 Atlanta Highway Suite 900, Gainesville, GA 30501",Gainesville,-83.838457,34.285102,"Sandwich, Seafood, Cajun",25,Dollar($),No,No,No,2,4.9,Dark Green,Excellent,681,United States
Eat at Thai,Gainesville,"975 Dawsonville Hwy, Gainesville, GA 30501",Gainesville,-83.857993,34.300182,Thai,10,Dollar($),No,No,No,1,4.6,Dark Green,Excellent,357,United States
Smoke House BBQ and Catering,Gainesville,"3205 Atlanta Hwy, Atlanta Highway, Gainesville, GA, Gainesville, GA 30507",Gainesville,-83.860098,34.222755,BBQ,25,Dollar($),No,No,No,2,3.8,Yellow,Good,89,United States
2 Dog,Gainesville,"317 Spring St SE, Gainesville, GA 30501",Gainesville,-83.824023,34.300567,"American, European, Sandwich",25,Dollar($),No,No,No,2,4.2,Green,Very Good,350,United States
Longstreet Cafe,Gainesville,"1043 Riverside Terrace, Gainesville, GA 30501",Gainesville,-83.8272,34.3166,Southern,10,Dollar($),No,No,No,1,4.3,Green,Very Good,298,United States
Re-Cess,Gainesville,"118 Bradford St NE, Gainesville, GA 30501",Gainesville,-83.82686,34.300332,"American, Southern",25,Dollar($),No,No,No,2,4.2,Green,Very Good,319,United States
Bodensee,Gainesville,"64 Munich Strasse, Helen, GA 30545",Helen,-83.727741,34.701594,German,40,Dollar($),No,No,No,3,3.8,Yellow,Good,114,United States
Hofer's Bakery & Cafe,Gainesville,"8758 N Main St, Helen, GA 30545",Helen,-83.7345,34.7024,"German, Ice Cream",10,Dollar($),No,No,No,1,3.9,Yellow,Good,136,United States
Troll Tavern,Gainesville,"8590 N Main St Ste B, Helen, GA 30545",Helen,-83.7334,34.7021,"Burger, German, Sandwich",25,Dollar($),No,No,No,2,2.2,Red,Poor,108,United States
The Nacoochee Village Tavern & Pizzeria,Gainesville,"7275 S Main St., Helen, GA 30545",Helen,-83.713498,34.691208,"Italian, Pizza, Sandwich",10,Dollar($),No,No,No,1,4.0,Green,Very Good,161,United States
Blue Bean Love Cafe,Hepburn Springs,"115 Main Rd, Hepburn Springs, Hepburn Springs, VIC",Hepburn Springs,144.1387014,-37.3123267,"Cafe, Coffee and Tea, Modern Australian",20,Dollar($),No,No,No,2,3.8,Yellow,Good,192,Australia
La Trattoria of Lavandula,Hepburn Springs,"350 Hepburn-Newstead Road, Hepburn Springs, VIC",Hepburn Springs,144.110062,-37.275494,"Italian, Fusion, Cafe",7,Dollar($),No,No,No,1,3.8,Yellow,Good,93,Australia
5 Little Pigs,Huskisson,"64 Owen St, Huskisson, NSW",Huskisson,150.6710743,-35.0388698,"Breakfast, Modern Australian",20,Dollar($),No,No,No,2,4.1,Green,Very Good,40,Australia
Beach Box Cafe,Inverloch,"6a Ramsay Blvd, Inverloch, VIC",Inverloch,145.7287133,-38.6347458,"Burger, Coffee and Tea, Modern Australian",7,Dollar($),No,No,No,1,3.7,Yellow,Good,100,Australia
Funkey Monkey,Lakes Entrance,"26 Myer street, Lakes Entrance, VIC",Lakes Entrance,147.9942247,-37.8783865,"Breakfast, Coffee and Tea",7,Dollar($),No,No,No,1,3.8,Yellow,Good,97,Australia
Burger Queen Drive In,Lakeview,"109 S F St, Lakeview, OR 97630",Lakeview,-120.3458,42.1885,"Burger, Desserts, Sandwich",10,Dollar($),No,No,No,1,3.6,Yellow,Good,41,United States
Blue Orchid Thai Restaurant,Lincoln,"129 N 10th St, Lincoln, NE 68508",Haymarket,-96.7072,40.8143,Thai,25,Dollar($),No,No,No,2,4.5,Dark Green,Excellent,799,United States
Stillwater on Belmore,Lorn,"27 Belmore Rd,, Lorn, NSW",Lorn,151.558475,-32.728097,"Breakfast, Coffee and Tea",20,Dollar($),No,No,No,2,3.6,Yellow,Good,18,Australia
Mr.,Macedon,"23 Victoria St, Macedon, VIC",Macedon,144.564174,-37.423189,Cafe,20,Dollar($),No,No,No,2,3.5,Yellow,Good,31,Australia
Emilio's Cuban Cafe,Macon,"402 Ga. Highway 247, Bonaire, GA 31005",Bonaire,-83.594494,32.567741,"Coffee and Tea, Cuban, Latin American",25,Dollar($),No,No,No,2,3.9,Yellow,Good,146,United States
Ingleside Village Pizza,Macon,"2395 Ingleside Ave, Macon, GA 31204",Macon,-83.657061,32.853896,"Pizza, Sandwich",10,Dollar($),No,No,No,1,4.9,Dark Green,Excellent,478,United States
Jim Shaw's Seafood Grill & Bar,Macon,"3040 Vineville Ave, Macon, GA 31204",Macon,-83.6737,32.8496,Seafood,25,Dollar($),No,No,No,2,4.6,Dark Green,Excellent,467,United States
Mandarin Chinese Restaurant,Macon,"3086 Riverside Dr, Macon, GA 31210",Macon,-83.6766,32.8899,"Chinese, Thai",25,Dollar($),No,No,No,2,4.5,Dark Green,Excellent,302,United States
Rookery,Macon,"543 Cherry St, Macon, GA 31201",Macon,-83.6279,32.8361,"Burger, Desserts, Bar Food",25,Dollar($),No,No,No,2,4.5,Dark Green,Excellent,289,United States
Dovetail,Macon,"543 Cherry St, Macon, GA 31201",Macon,-83.627979,32.83641,Others,40,Dollar($),No,No,No,3,3.8,Yellow,Good,102,United States
Bonefish Grill,Macon,"5080 Riverside Dr, Macon, GA 31210",Macon,-83.713978,32.929278,"American, Seafood",40,Dollar($),No,No,No,3,4.1,Green,Very Good,293,United States
Downtown Grill,Macon,"562 Mulberry St, Macon, GA 31201",Macon,-83.6276,32.8375,Steak,70,Dollar($),No,No,No,4,4.0,Green,Very Good,195,United States
Greek Corner Deli,Macon,"587 Cherry St, Macon, GA 31201",Macon,-83.628703,32.83654,"Desserts, Greek, Sandwich",10,Dollar($),No,No,No,1,4.3,Green,Very Good,244,United States
Natalia's,Macon,"201 North Macon St., Macon, GA 31210",Macon,-83.787993,32.928495,"European, Italian, Mediterranean",70,Dollar($),No,No,No,4,4.2,Green,Very Good,379,United States
Papouli's Mediterranean Cafe & Market,Macon,"121 Tom Hill Sr Blvd, Macon, GA 31210",Macon,-83.6873,32.901,"Greek, Mediterranean, Vegetarian",10,Dollar($),No,No,No,1,4.2,Green,Very Good,223,United States
Benson's Steak and Sushi,Macon,"1289 S Houston Lake Rd, Warner Robins, GA 31088",Warner Robins,-83.662421,32.556873,"American, Chinese, Sushi",25,Dollar($),No,No,No,2,3.7,Yellow,Good,243,United States
My Fathers Place,Macon,"2507 Moody Rd, Warner Robins, GA 31088",Warner Robins,-83.624,32.5786,Italian,25,Dollar($),No,No,No,2,3.7,Yellow,Good,104,United States
Sushi Thai Restaurant,Macon,"2624 Watson Blvd Ste D, Warner Robins, GA 31093",Warner Robins,-83.6665,32.6184,"Japanese, Sushi, Thai",10,Dollar($),No,No,No,1,3.7,Yellow,Good,153,United States
The Mellow Mushroom,Macon,"710 Lake Joy Road, Warner Robins, GA 31088",Warner Robins,-83.691044,32.552684,"Pizza, Sandwich, Vegetarian",25,Dollar($),No,No,No,2,3.8,Yellow,Good,323,United States
El Jalisciense Mexican Restaurant,Macon,"1224 Russell Pkwy, Warner Robins, GA 31088",Warner Robins,-83.64935,32.594666,Mexican,10,Dollar($),No,No,No,1,4.1,Green,Very Good,181,United States
Greek Village,Macon,"1801 Watson Blvd, Warner Robins, GA 31093",Warner Robins,-83.636618,32.6176839,"American, Greek, Seafood",25,Dollar($),No,No,No,2,4.0,Green,Very Good,316,United States
Martin's BBQ,Macon,"102 S Armed Forces Boulevard, Warner Robins, GA 31088",Warner Robins,-83.600201,32.619321,BBQ,25,Dollar($),No,No,No,2,4.2,Green,Very Good,288,United States
Thai Pepper,Macon,"1806 Russell Parkway, Warner Robins, GA 31088",Warner Robins,-83.665557,32.593264,"Japanese, Sushi, Thai",10,Dollar($),No,No,No,1,4.0,Green,Very Good,232,United States
Zen Japanese Steakhouse and Sushi Bar,Macon,"4086 Watson Blvd, Warner Robins, GA 31093",Warner Robins,-83.7184,32.6147,"Japanese, Steak, Sushi",40,Dollar($),No,No,No,3,4.1,Green,Very Good,314,United States
Star Buffet,Mayfield,"58 Hanbury St, Mayfield, NSW",Mayfield,151.7343832,-32.899178,Asian,20,Dollar($),No,No,No,2,2.9,Orange,Average,11,Australia
Triangle Restaurant,Mc Millan,"21053 State Hwy M28, Mc Millan, MI 49853",Mc Millan,-85.7363,46.3718,"Breakfast, Burger",10,Dollar($),No,No,No,1,2.4,Red,Poor,17,United States
Three Anchors,Middleton Beach,"2 Flinders Pde, Middleton Beach, WA",Middleton Beach,117.917166,-35.025861,"Bar Food, Modern Australian",30,Dollar($),No,No,No,3,3.8,Yellow,Good,176,Australia
HI Lite Bar & Lounge,Miller,"109 N Broadway Ave, Miller, SD 57362",Miller,-98.9891,44.5158,Others,0,Dollar($),No,No,No,1,3.4,Orange,Average,11,United States
Vince's Restaurant & Pizzeria,Monroe,"619 4th Ave, Monroe, WI 53566",Monroe,-89.653487,42.606306,"Italian, Pizza",25,Dollar($),No,No,No,2,3.6,Yellow,Good,65,United States
Poets Cafe,Montville,"167 Main St, Montville, QLD",Montville,152.893735,-26.690462,"Coffee and Tea, Modern Australian",30,Dollar($),No,No,No,3,2.4,Red,Poor,193,Australia
The Artesian Restaurant,Ojo Caliente,"Ojo Caliente Mineral Springs Resort And Spa 50 Los Banos Rd, Ojo Caliente, NM 87549",Ojo Caliente,-106.057666,36.313638,"American, International, Southwestern",40,Dollar($),No,No,No,3,3.6,Yellow,Good,30,United States
Ceví_che Tapas Bar & Restaurant,Orlando,"125 West Church Street, Orlando, FL 32801",Church Street District,-81.381077,28.540432,"Spanish, Tapas",40,Dollar($),No,No,No,3,4.4,Green,Very Good,981,United States
'Ohana,Orlando,"1600 Seven Seas Drive, Lake Buena Vista, FL 32830",Disney World Area,-81.585226,28.405437,Hawaiian,45,Dollar($),No,No,No,3,4.5,Dark Green,Excellent,1151,United States
Earl of Sandwich,Orlando,"1750 E Buena Vista Drive, Lake Buena Vista, FL 32830",Disney: Downtown Disney,-81.514608,28.372858,"American, Sandwich, Salad",35,Dollar($),No,No,No,3,4.7,Dark Green,Excellent,1341,United States
Raglan Road Irish Pub and Restaurant,Orlando,"1640 E Buena Vista Drive, Lake Buena Vista, FL 32830",Disney: Downtown Disney,-81.517725,28.371338,Irish,50,Dollar($),No,No,No,4,4.3,Green,Very Good,782,United States
Cafí© Tu Tu Tango,Orlando,"8625 International Drive, Orlando, FL 32819",I-Drive/Universal,-81.469986,28.440344,"New American, Tapas",40,Dollar($),No,No,No,3,4.6,Dark Green,Excellent,1293,United States
Texas de Brazil,Orlando,"5259 International Drive, Orlando, FL 32819",I-Drive/Universal,-81.4510725,28.4676808,"Brazilian, Steak",100,Dollar($),No,No,No,4,4.6,Dark Green,Excellent,2324,United States
Bahama Breeze Island Grille,Orlando,"8849 International Drive, Orlando, FL 32819",I-Drive/Universal,-81.471526,28.437065,Caribbean,45,Dollar($),No,No,No,3,4.3,Green,Very Good,910,United States
Maggiano's Little Italy,Orlando,"9101 International Drive,Orlando, FL 32819",I-Drive/Universal,-81.471447,28.433235,Italian,50,Dollar($),No,No,No,4,4.4,Green,Very Good,886,United States
Hawkers Asian Street Fare,Orlando,"1103 N Mills Avenue, Orlando, FL 32803",Mills 50,-81.364347,28.560505,"Asian, Thai",35,Dollar($),No,No,No,3,4.6,Dark Green,Excellent,1293,United States
Tako Cheena by Pom Pom,Orlando,"932 North Mills Avenue, Orlando, FL 32803",Mills 50,-81.364547,28.557845,"Asian, Latin American, Vegetarian",10,Dollar($),No,No,No,1,4.4,Green,Very Good,570,United States
Seasons 52 Fresh Grill,Orlando,"7700 West Sand Lake Road, Orlando, FL 32819",Restaurant Row,-81.487978,28.448175,American,60,Dollar($),No,No,No,4,4.4,Green,Very Good,1685,United States
Hollerbach's Willow Tree Cafí©,Orlando,"205 East 1st Street, Sanford, FL 32771",Sanford,-81.266871,28.811653,German,40,Dollar($),No,No,No,3,4.8,Dark Green,Excellent,1699,United States
Pom Pom's Teahouse and Sandwicheria,Orlando,"67 North Bumby Avenue, Orlando, FL 32803",The Milk District,-81.351467,28.543571,"American, Sandwich, Tea",25,Dollar($),No,No,No,2,4.9,Dark Green,Excellent,1457,United States
Yellow Dog Eats,Orlando,"1236 Hempel Avenue,Gotha, FL 34786",Windermere,-81.522987,28.527592,"American, BBQ, Sandwich",35,Dollar($),No,No,No,3,4.9,Dark Green,Excellent,1252,United States
Tibby's New Orleans Kitchen,Orlando,"2203 Aloma Avenue, Winter Park, FL 32792",Winter Park,-81.322631,28.601088,Cajun,25,Dollar($),No,No,No,2,4.7,Dark Green,Excellent,1412,United States
The Coop,Orlando,"610 W Morse Boulevard, Winter Park, FL 32789",Winter Park,-81.357219,28.597366,"Southern, Cajun, Soul Food",25,Dollar($),No,No,No,2,3.6,Yellow,Good,432,United States
Bosphorous Turkish Cuisine,Orlando,"108 S Park Ave, Winter Park, FL 32789",Winter Park,-81.3508344,28.5976271,"Mediterranean, Turkish",40,Dollar($),No,No,No,3,4.2,Green,Very Good,568,United States
Ethos Vegan Kitchen,Orlando,"601-B South New York Avenue, Winter Park, FL 32789",Winter Park,-81.352921,28.592857,"American, Breakfast, Vegetarian",25,Dollar($),No,No,No,2,4.4,Green,Very Good,797,United States
Hillstone,Orlando,"215 South Orlando Avenue, Winter Park, FL 32789",Winter Park,-81.36526,28.596682,Others,40,Dollar($),No,No,No,3,4.4,Green,Very Good,1158,United States
The Ravenous Pig,Orlando,"565 W Fairbanks Avenue, Winter Park, FL 32789",Winter Park,-81.356024,28.593297,Pub Food,40,Dollar($),No,No,No,3,4.4,Green,Very Good,1998,United States
Vivo Bar and Grill,Palm Cove,"49 Williams Esplanade, Palm Cove, QLD",Palm Cove,145.670768,-16.748083,"Mediterranean, Seafood",30,Dollar($),No,No,No,3,4.4,Green,Very Good,381,Australia
Pier 70,Paynesville,"70 The Esplanade, Paynesville",Paynesville,147.7227832,-37.9194154,Modern Australian,120,Dollar($),No,No,No,4,2.6,Orange,Average,16,Australia
DiVine,Penola,"39 Church St, Penola, SA",Penola,140.837409,-37.379153,"Cafe, Coffee and Tea, Sandwich",20,Dollar($),No,No,No,2,3.4,Orange,Average,19,Australia
Cactus Flower Cafe Navarre,Pensacola,"8725 Ortega Park Dr, Navarre, FL 32566",Navarre,-86.8573393,30.4025979,"Mexican, Southwestern, Tex-Mex",25,Dollar($),No,No,No,2,4.2,Green,Very Good,635,United States
McGuire's Irish Pub & Brewery,Pensacola,"600 E Gregory Street, Pensacola, FL 32502",Pensacola,-87.2027,30.4179,"Burger, Bar Food, Steak",40,Dollar($),No,No,No,3,4.9,Dark Green,Excellent,2238,United States
New Yorker Deli & Pizzeria,Pensacola,"3001 E Cervantes St, Pensacola, FL 32503",Pensacola,-87.1819,30.4251,"Italian, Pizza, Sandwich",10,Dollar($),No,No,No,1,4.6,Dark Green,Excellent,792,United States
Tu-Do Vietnamese Restaurant,Pensacola,"7130 N Davis Hwy, Pensacola, FL 32504",Pensacola,-87.2216,30.4982,"Asian, Vietnamese",10,Dollar($),No,No,No,1,4.5,Dark Green,Excellent,828,United States
Carrabba's Italian Grill,Pensacola,"311 N 9th Avenue, Pensacola, FL 32502",Pensacola,-87.205855,30.417318,"Italian, Pizza, Seafood",40,Dollar($),No,No,No,3,3.7,Yellow,Good,292,United States
Jaco's Bayfront Bar and Grille,Pensacola,"997 South Palafox, Pensacola, FL 32502",Pensacola,-87.213274,30.403034,Tapas,25,Dollar($),No,No,No,2,3.9,Yellow,Good,502,United States
The Tin Cow,Pensacola,"102 S Palafox Pl, Pensacola, FL",Pensacola,-87.2150874,30.4116106,"Burger, Bar Food",25,Dollar($),No,No,No,2,3.7,Yellow,Good,559,United States
Cactus Flower Cafe,Pensacola,"3425 N 12th Ave, Pensacola, FL 32503",Pensacola,-87.2080932,30.4473322,"Latin American, Mexican, Southwestern",25,Dollar($),No,No,No,2,4.2,Green,Very Good,1268,United States
Dharma Blue,Pensacola,"300 S Alcaniz Street, Pensacola, FL 32502",Pensacola,-87.2092,30.4101,"Seafood, Sushi",40,Dollar($),No,No,No,3,4.1,Green,Very Good,669,United States
Global Grill,Pensacola,"27 South Palafox Pl, Pensacola, FL 32501",Pensacola,-87.2153054,30.411878,"European, International, Tapas",40,Dollar($),No,No,No,3,4.4,Green,Very Good,900,United States
Ichiban,Pensacola,"5555 N Davis Hwy Ste I, Pensacola, FL 32503",Pensacola,-87.2252,30.4767,"Japanese, Sushi",25,Dollar($),No,No,No,2,4.3,Green,Very Good,765,United States
The Fish House,Pensacola,"600 S Barracks St, Pensacola, FL 32502",Pensacola,-87.211082,30.407358,"American, Seafood, Sushi",40,Dollar($),No,No,No,3,4.0,Green,Very Good,1270,United States
Tuscan Oven,Pensacola,"4801 N 9th Ave, Pensacola, FL 32503",Pensacola,-87.214,30.4692,"Italian, Mediterranean, Pizza",25,Dollar($),No,No,No,2,4.1,Green,Very Good,502,United States
Flounders Chowder House,Pensacola,"800 Quietwater Beach Rd, Pensacola Beach, FL 32561",Pensacola Beach,-87.143,30.3359,Seafood,40,Dollar($),No,No,No,3,3.9,Yellow,Good,724,United States
Hemingway's Island Grill,Pensacola,"400 Quietwater Beach Rd, Pensacola Beach, FL 32561",Pensacola Beach,-87.142602,30.335521,"Caribbean, Seafood, Steak",40,Dollar($),No,No,No,3,3.5,Yellow,Good,479,United States
Native Cafe,Pensacola,"45 A Via De Luna Dr, Pensacola Beach, FL 32561",Pensacola Beach,-87.132932,30.334776,"Breakfast, Burger",25,Dollar($),No,No,No,2,4.2,Green,Very Good,591,United States
Peg Leg Pete's,Pensacola,"1010 Fort Pickens Rd, Pensacola Beach, FL 32561",Pensacola Beach,-87.164376,30.327864,"Burger, Sandwich, Seafood",40,Dollar($),No,No,No,3,4.4,Green,Very Good,1408,United States
The Grand Marlin,Pensacola,"400 Pensacola Beach Boulevard, Pensacola Beach, FL 32561",Pensacola Beach,-87.149178,30.34262,"Caribbean, Seafood",40,Dollar($),No,No,No,3,4.3,Green,Very Good,905,United States
Original Georgios Authentic Greek Food,Pensacola,"13310 Merilla Street, Pensacola, FL 32507",Perdido Key,-87.4218962,30.3199824,Greek,10,Dollar($),No,No,No,1,4.7,Dark Green,Excellent,816,United States
Fisherman's Corner,Pensacola,"13486 Perdido Key Dr, Pensacola, FL 32507",Perdido Key,-87.427707,30.308468,"Sandwich, Seafood, Cajun",40,Dollar($),No,No,No,3,4.4,Green,Very Good,747,United States
Mad Cowes Cafe,Phillip Island,"4/17 The Esplanade, Cowes, VIC",Phillip Island,145.237813,-38.448307,"Breakfast, Coffee and Tea, Modern Australian",20,Dollar($),No,No,No,2,3.7,Yellow,Good,351,Australia
Rupes Burgers,Pocatello,"302 NE Main St, Blackfoot, ID 83221",Blackfoot,-112.3415,43.1903,"Burger, Fast Food",10,Dollar($),No,No,No,1,3.7,Yellow,Good,104,United States
Texas Roadhouse,Pocatello,"560 Bullock Street, Pocatello, ID 83202",Chubbuck,-112.461326,42.910518,"American, BBQ, Steak",45,Dollar($),No,No,No,3,3.5,Yellow,Good,83,United States
Riverwalk Cafe,Pocatello,"695 E Main St, Lava Hot Springs, ID 83246",Lava Hot Springs,-112.0132,42.62,"Asian, Thai",10,Dollar($),No,No,No,1,3.6,Yellow,Good,91,United States
Royal Hotel,Pocatello,"11 E Main St, Lava Hot Springs, ID 83246",Lava Hot Springs,-112.0127,42.6192,"Pizza, Bar Food",0,Dollar($),No,No,No,1,3.6,Yellow,Good,59,United States
Buddy's Italian Restaurant,Pocatello,"626 E Lewis St, Pocatello, ID 83201",Pocatello,-112.4423,42.8661,"Italian, Pizza, Sandwich",40,Dollar($),No,No,No,3,3.7,Yellow,Good,222,United States
Butterburrs,Pocatello,"917 Yellowstone Avenue, Pocatello, ID 83201",Pocatello,-112.4516,42.8919,"American, Breakfast",30,Dollar($),No,No,No,3,3.6,Yellow,Good,121,United States
Chang Garden,Pocatello,"1000 Pocatello Creek Rd Ste W2, Pocatello, ID 83201",Pocatello,-112.441,42.8928,Chinese,10,Dollar($),No,No,No,1,3.5,Yellow,Good,93,United States
Fifth Street Bagelry,Pocatello,"559 S 5TH Ave, Pocatello, ID 83201",Pocatello,-112.4397,42.8631,"Coffee and Tea, Sandwich",10,Dollar($),No,No,No,1,3.8,Yellow,Good,136,United States
Goody's Deli,Pocatello,"905 S 5th Ave, Pocatello, ID 83201",Pocatello,-112.4365,42.8604,"Pizza, Sandwich",10,Dollar($),No,No,No,1,3.8,Yellow,Good,160,United States
Grecian Key Restaurant,Pocatello,"314 N Main St, Pocatello, ID 83204",Pocatello,-112.4524,42.8639,"American, Greek",25,Dollar($),No,No,No,2,3.7,Yellow,Good,152,United States
Outer Limits Fun Zone,Pocatello,"1800 Garrett Way, Pocatello, ID 83201",Pocatello,-112.459988,42.878077,"Burger, Pizza, Sandwich",10,Dollar($),No,No,No,1,3.5,Yellow,Good,57,United States
Portneuf Valley Brewing,Pocatello,"615 South 1st Avenue, ID 83201",Pocatello,-112.443213,42.860024,"American, Pizza",25,Dollar($),No,No,No,2,3.7,Yellow,Good,191,United States
Sandpiper Restaurant & Lounge,Pocatello,"1400 Bench Rd, Pocatello, ID 83201",Pocatello,-112.432,42.9012,"American, Seafood, Steak",40,Dollar($),No,No,No,3,3.6,Yellow,Good,85,United States
Senor Iguanas,Pocatello,"961 Hiline Rd, Pocatello, ID 83201",Pocatello,-112.4433,42.8942,Mexican,0,Dollar($),No,No,No,1,3.6,Yellow,Good,108,United States
Sushi Family,Pocatello,"415 Yellowstone Ave, Pocatello, ID 83201",Pocatello,-112.452013,42.88245,"Asian, Sushi, Vegetarian",25,Dollar($),No,No,No,2,3.6,Yellow,Good,132,United States
Taste of India Nepal,Pocatello,"330 N Main Street, Pocatello, ID 83204",Pocatello,-112.45253,42.863969,"Indian, International, Vegetarian",25,Dollar($),No,No,No,2,3.8,Yellow,Good,141,United States
Thai Paradise,Pocatello,"140 S. Main, Pocatello, ID 83204",Pocatello,-112.450106,42.861871,"Desserts, Thai",25,Dollar($),No,No,No,2,3.7,Yellow,Good,162,United States
The Bridge,Pocatello,"815 S 1st Street, Pocatello, ID 83201",Pocatello,-112.4413856,42.8585987,New American,40,Dollar($),No,No,No,3,3.6,Yellow,Good,144,United States
Nosh Mahal,Pocatello,"303 E Alameda Road, ID 83201",Pocatello,-112.44853,42.891174,"Indian, Persian",25,Dollar($),No,No,No,2,0.0,White,Not rated,1,United States
El Herradero,Pocatello,"123 Jefferson Ave, Pocatello, ID 83201",Pocatello,-112.4419,42.8774,Mexican,10,Dollar($),No,No,No,1,4.1,Green,Very Good,365,United States
Barrett Junction Cafe,Potrero,"1020 Barrett Lake Rd, Dulzura, CA 91917",Potrero,-116.704731,32.613431,"American, BBQ, Burger",25,Dollar($),No,No,No,2,3.3,Orange,Average,9,United States
Blue Point Grill,Princeton,"258 Nassau St, Princeton, NJ 08542",Princeton,-74.651139,40.352385,Seafood,70,Dollar($),No,No,No,4,4.0,Green,Very Good,542,United States
Giovanni's Shrimp Truck,Rest of Hawaii,"56-505 Kamehameha Hwy, Kahuku, HI 96731",Kahuku,-157.948486,21.677078,Seafood,25,Dollar($),No,No,No,2,4.5,Dark Green,Excellent,691,United States
Kona Brewing Company,Rest of Hawaii,"75-5629 Kuakini Highway, Kailua Kona, HI 96740",Kailua Kona,-155.997362,19.642752,"American, Pizza, Bar Food",35,Dollar($),No,No,No,3,4.7,Dark Green,Excellent,764,United States
Leonard's Bakery,Rest of Hawaii,"933 Kapahulu Ave, Honolulu, HI 96816",Kaimuki,-157.813432,21.284586,Others,10,Dollar($),No,No,No,1,4.7,Dark Green,Excellent,707,United States
Coconuts Fish Cafe,Rest of Hawaii,"1279 S Kihei Road, Kihei, HI 96753",Kihei,-156.455284,20.748838,Seafood,30,Dollar($),No,No,No,3,4.5,Dark Green,Excellent,487,United States
Kihei Caffe,Rest of Hawaii,"1945 S Kihei Road, Kihei, HI 96753",Kihei,-156.451847,20.731487,"American, Hawaiian",10,Dollar($),No,No,No,1,4.5,Dark Green,Excellent,695,United States
Monkeypod Kitchen by Merriman,Rest of Hawaii,"10 Wailea Gateway Place, Unit B-201 Kihei, Hawaii, HI 96753",Kihei,-156.4309473,20.6883746,Burger,40,Dollar($),No,No,No,3,4.2,Green,Very Good,485,United States
Sansei Seafood Restaurant & Sushi Bar,Rest of Hawaii,"1881 S Kihei Rd, Kihei, HI 96753",Kihei,-156.452556,20.733554,"Japanese, Seafood, Sushi",40,Dollar($),No,No,No,3,4.2,Green,Very Good,807,United States
Star Noodle,Rest of Hawaii,"286 Kupuohi St, Lahaina, HI 96761",Lahaina,-156.674835,20.885226,Asian,10,Dollar($),No,No,No,1,4.6,Dark Green,Excellent,723,United States
Aloha Mixed Plate,Rest of Hawaii,"1285 Front St, Lahaina, HI 96761",Lahaina,-156.684967,20.886564,"Asian, Breakfast, Hawaiian",10,Dollar($),No,No,No,1,4.2,Green,Very Good,874,United States
Gazebo,Rest of Hawaii,"5315 Lower Honoapiilani Rd, Lahaina, HI 96761",Lahaina,-156.667037,20.992316,"Breakfast, Burger",25,Dollar($),No,No,No,2,4.4,Green,Very Good,552,United States
Hula Grill,Rest of Hawaii,"2435 Kaanapali Pkwy, Lahaina, HI 96761",Lahaina,-156.693821,20.921347,"Hawaiian, Seafood, Steak",40,Dollar($),No,No,No,3,4.3,Green,Very Good,1056,United States
Kimo's,Rest of Hawaii,"845 Front St, Lahaina, HI 96761",Lahaina,-156.680666,20.876127,"Hawaiian, Seafood, Steak",40,Dollar($),No,No,No,3,4.3,Green,Very Good,707,United States
Mama's Fish House,Rest of Hawaii,"799 Poho Pl, Paia, HI 96779",Paia,-156.366445,20.929622,"Hawaiian, Seafood",70,Dollar($),No,No,No,4,4.9,Dark Green,Excellent,1343,United States
Marukame Udon,Rest of Hawaii,"2310 Kuhio Avenue, Honolulu, HI 96815",Waikiki,-157.825979,21.279476,Japanese,10,Dollar($),No,No,No,1,4.9,Dark Green,Excellent,602,United States
Yard House,Rest of Hawaii,"226 Lewers St, Honolulu, HI 96815",Waikiki,-157.8312476,21.2794952,"American, Asian, Burger",40,Dollar($),No,No,No,3,4.6,Dark Green,Excellent,1078,United States
Lulu's Waikiki,Rest of Hawaii,"2586 Kalakaua Ave, Honolulu, HI 96815",Waikiki,-157.822716,21.271826,American,25,Dollar($),No,No,No,2,3.9,Yellow,Good,232,United States
Duke's Waikiki,Rest of Hawaii,"2335 Kalakaua Ave, Honolulu, HI 96815",Waikiki,-157.827196,21.277583,"Hawaiian, Seafood, Steak",70,Dollar($),No,No,No,4,4.4,Green,Very Good,1492,United States
Eggs 'n Things,Rest of Hawaii,"343 Saratoga Road, Honolulu, HI 96815",Waikiki,-157.831538,21.280663,Breakfast,10,Dollar($),No,No,No,1,4.0,Green,Very Good,535,United States
Roy's,Rest of Hawaii,"226 Lewers St, Honolulu, HI 96815",Waikiki,-157.831176,21.279154,"Asian, European, Seafood",70,Dollar($),No,No,No,4,4.2,Green,Very Good,531,United States
Wailana Coffee House,Rest of Hawaii,"1860 Ala Moana Blvd, Honolulu, HI 96815",Waikiki,-157.836031,21.285396,"American, Breakfast, Hawaiian",25,Dollar($),No,No,No,2,4.2,Green,Very Good,694,United States
The Lady & Sons,Savannah,"102 W Congress St, Savannah, GA 31401",Savannah,-81.0954,32.0804,Southern,40,Dollar($),No,No,No,3,3.3,Orange,Average,1201,United States
Green Truck Pub,Savannah,"2430 Habersham Street, Savannah, GA 31401",Savannah,-81.096647,32.052858,Burger,40,Dollar($),No,No,No,3,4.7,Dark Green,Excellent,906,United States
Leopold's Ice Cream,Savannah,"212 E Broughton Street, Savannah, GA 31401",Savannah,-81.0894,32.0785,"Desserts, Sandwich, Ice Cream",10,Dollar($),No,No,No,1,4.6,Dark Green,Excellent,880,United States
Mrs. Wilkes' Dining Room,Savannah,"107 W Jones St, Savannah, GA 31401",Savannah,-81.0955,32.0727,"American, Southern",40,Dollar($),No,No,No,3,4.5,Dark Green,Excellent,1014,United States
Zunzi's,Savannah,"108 E York Street, Savannah, GA 31401",Savannah,-81.0911,32.0775,"International, Mediterranean, Sandwich",25,Dollar($),No,No,No,2,4.5,Dark Green,Excellent,796,United States
Moon River Brewing Company,Savannah,"21 W Bay St, Savannah, GA 31401",Savannah,-81.0916,32.0809,"American, Bar Food, Sandwich",25,Dollar($),No,No,No,2,3.7,Yellow,Good,747,United States
Pirates' House Restaurant,Savannah,"20 E Broad St, Savannah, GA 31401",Savannah,-81.0844,32.0782,"American, Seafood, Steak",40,Dollar($),No,No,No,3,3.8,Yellow,Good,566,United States
B. Matthew's Eatery,Savannah,"325 E Bay St, Savannah, GA 31401",Savannah,-81.0875,32.0798,"American, Breakfast",25,Dollar($),No,No,No,2,4.1,Green,Very Good,683,United States
Crystal Beer Parlor,Savannah,"301 W Jones St, Savannah, GA 31401",Savannah,-81.0979,32.0735,"American, Bar Food",25,Dollar($),No,No,No,2,4.4,Green,Very Good,690,United States
Goose Feathers Cafe and Bakery,Savannah,"39 Barnard St, Savannah, GA 31401",Savannah,-81.0941,32.0801,"Breakfast, Vegetarian",10,Dollar($),No,No,No,1,4.2,Green,Very Good,680,United States
Henry's,Savannah,"28 Drayton St, Savannah, GA 31401",Savannah,-81.0905213,32.0794767,"American, Breakfast",10,Dollar($),No,No,No,1,4.1,Green,Very Good,287,United States
Huey's On The River,Savannah,"115 E River St, Savannah, GA 31401",Savannah,-81.0897,32.0812,"Breakfast, Cajun",40,Dollar($),No,No,No,3,4.1,Green,Very Good,802,United States
J. Christopher's,Savannah,"122 E. Liberty, Savannah, GA 31401",Savannah,-81.091482,32.074495,"Breakfast, Diner, Sandwich",25,Dollar($),No,No,No,2,4.3,Green,Very Good,710,United States
Lulu's Chocolate Bar,Savannah,"42 MLK Jr. Blvd, Savannah, GA 31401",Savannah,-81.097051,32.080742,"Coffee and Tea, Desserts",10,Dollar($),No,No,No,1,4.3,Green,Very Good,456,United States
Rocks on the River,Savannah,"102 West Bay St., Savannah, GA 31401",Savannah,-81.092484,32.081394,"Pizza, Seafood, Steak",70,Dollar($),No,No,No,4,4.0,Green,Very Good,687,United States
SOHO South Cafe,Savannah,"12 W Liberty St, Savannah, GA 31401",Savannah,-81.0939,32.0747,"Cafe, Sandwich, Southern",25,Dollar($),No,No,No,2,4.3,Green,Very Good,719,United States
The Olde Pink House,Savannah,"23 Abercorn St, Savannah, GA 31401",Savannah,-81.0897,32.0798,"American, Seafood, Southern",70,Dollar($),No,No,No,4,4.4,Green,Very Good,1803,United States
Vic's On The River,Savannah,"26 E Bay St, Savannah, GA 31401",Savannah,-81.0908,32.0809,American,70,Dollar($),No,No,No,4,4.1,Green,Very Good,558,United States
The Crab Shack,Savannah,"40 Estill Hammock Rd, Tybee Island, GA 31328",Tybee Island,-80.865909,32.011689,Seafood,40,Dollar($),No,No,No,3,3.8,Yellow,Good,883,United States
Tybee Island Social Club,Savannah,"1311 Butler Ave, Tybee Island, GA 31328",Tybee Island,-80.848297,31.99581,Others,10,Dollar($),No,No,No,1,3.9,Yellow,Good,309,United States
Sky On 57,Singapore,"10 Bayfront Avenue, 57 Marina Bay Sands 018956","Bayfront Avenue, Downtown Core",103.8600048,1.2826608,"Chinese, Continental, Singaporean",300,Dollar($),No,No,No,4,3.4,Orange,Average,34,Singapore
Cut By Wolfgang Puck,Singapore,"2 Bayfront Avenue, B1-71 Marina Bay Sands 018972","Bayfront Subzone, Downtown Core",103.8594222,1.285476931,"American, Steak",270,Dollar($),No,No,No,4,4.0,Green,Very Good,33,Singapore
Restaurant Andre,Singapore,41 Bukit Pasoh Road 089855,"Cantonment Road, Outram",103.8403602,1.279419756,"French, Mediterranean, European",500,Dollar($),No,No,No,4,3.8,Yellow,Good,33,Singapore
Potato Head Folk,Singapore,36 Keong Saik Road 089143,"Chinatown, Outram",103.8416688,1.280502991,American,80,Dollar($),No,No,No,4,3.1,Orange,Average,34,Singapore
Jaan,Singapore,"2 Stamford Road, Level 70 Equinox Complex 178882","City Hall, Downtown Core",103.8536048,1.293220698,French,430,Dollar($),No,No,No,4,3.8,Yellow,Good,35,Singapore
Rhubarb Le Restaurant,Singapore,"3 Duxton Hill, Duxton 089589","Duxton Hill, Outram",103.8430222,1.27944363,French,315,Dollar($),No,No,No,4,3.9,Yellow,Good,33,Singapore
Al'frank Cookies,Singapore,12 Haji Lane 189205,"Haji Lane, Rochor",103.859422,1.300404333,Bakery,20,Dollar($),No,No,No,2,4.2,Green,Very Good,29,Singapore
Fratini La Trattoria,Singapore,"10 Greenwood Avenue, Hillcrest Park 289201","Hillcrest, Bukit Timah",103.8070809,1.331128397,Italian,100,Dollar($),No,No,No,4,4.1,Green,Very Good,35,Singapore
Boufe Boutique Cafe,Singapore,"308 Tanglin Road,Phoenix Park #01-01  247974","Kay Siang Road, Tanglin",103.8146178,1.29782554,"Italian, French, Bakery, Cafe",50,Dollar($),No,No,No,3,3.2,Orange,Average,29,Singapore
The Refinery Singapore,Singapore,"115 King George Avenue, #01-02 Ann Chuan Industrial Building 208561","Lavender, Kallang",103.8621195,1.310668316,"American, Japanese, Singaporean",80,Dollar($),No,No,No,4,3.2,Orange,Average,30,Singapore
Chye Seng Huat Hardware,Singapore,150 Tyrwhitt Road 207563,"Lavender, Kallang",103.8604162,1.311550709,Cafe,40,Dollar($),No,No,No,3,3.7,Yellow,Good,33,Singapore
Makansutra Gluttons Bay,Singapore,"803 Raffles Avenue, #01-15 Esplanade Mall 039802","Marina Centre, Downtown Core",103.8558665,1.289761964,"Singaporean, Chinese, Seafood, Malay, Indian",30,Dollar($),No,No,No,3,3.0,Orange,Average,25,Singapore
Colony,Singapore,"7 Raffles Avenue, Ritz-carlton Millenia Singapore 039799","Marina Centre, Downtown Core",103.859955,1.2905805,"Asian, Continental, Seafood",220,Dollar($),No,No,No,4,3.8,Yellow,Good,30,Singapore
Summer Pavilion,Singapore,"The Ritz-Carlton, 7 Raffles Avenue,  Millenia Singapore,  039799","Marina Centre, Downtown Core",103.8601766,1.290800881,"Chinese, Seafood, Cantonese, Dim Sum",300,Dollar($),No,No,No,4,3.9,Yellow,Good,34,Singapore
The Lokal,Singapore,136 Neil Road 088865,"Neil Road, Outram",103.840921,1.278373182,"Singaporean, Australian, German",60,Dollar($),No,No,No,4,3.1,Orange,Average,33,Singapore
I Am,Singapore,"674 North Bridge Road, #01-01 Haji Lane 188804","North Bridge Road, Rochor",103.8584296,1.301707168,"Western, Fusion, Fast Food",60,Dollar($),No,No,No,4,3.2,Orange,Average,32,Singapore
Super Loco,Singapore,"The Quayside60 Roberston Quay #01-13 238252","Robertson Quay, Singapore River",103.839165,1.290083898,"American, Mexican",95,Dollar($),No,No,No,4,3.2,Orange,Average,30,Singapore
Artistry,Singapore,17 Jalan Pinang 199149,"Sungai Pinang, Rochor",103.8581813,1.303034648,"American, Bakery, European, Burger, Fusion",50,Dollar($),No,No,No,3,3.8,Yellow,Good,28,Singapore
Bitters & Love,Singapore,118 Telok Ayer Street 068587,"Telok Ayer Street, Outram",103.8482541,1.28197,Finger Food,40,Dollar($),No,No,No,3,3.9,Yellow,Good,35,Singapore
Artichoke Cafe,Singapore,"161 Middle Road, Sculpture Square 188978","Victoria, Rochor",103.8519943,1.299707726,"Cafe, Spanish, Turkish, Greek",75,Dollar($),No,No,No,4,3.2,Orange,Average,33,Singapore
Archie's Waeside,Sioux City,"224 4th Ave NE, Le Mars, IA 51031",Le Mars,-96.1608,42.7956,"Burger, Seafood, Steak",40,Dollar($),No,No,No,3,3.7,Yellow,Good,100,United States
Bob Roe's Pizza,Sioux City,"2320 Transit Ave, Sioux City, IA 51106",Sioux City,-96.379,42.4765,"American, Pizza, Bar Food",10,Dollar($),No,No,No,1,3.6,Yellow,Good,92,United States
Da Kao Restaurant,Sioux City,"800 W 7th St, Sioux City, IA 51103",Sioux City,-96.4173,42.5026,"Asian, Vegetarian, Vietnamese",10,Dollar($),No,No,No,1,3.8,Yellow,Good,182,United States
Famous Dave's,Sioux City,"201 Pierce St, Sioux City, IA 51101",Sioux City,-96.4051,42.492,BBQ,10,Dollar($),No,No,No,1,3.6,Yellow,Good,76,United States
Fuji Bay Japanese Restaurant,Sioux City,"513 6th St, Sioux City, IA 51101",Sioux City,-96.4046,42.4965,"Japanese, Sushi",40,Dollar($),No,No,No,3,3.7,Yellow,Good,129,United States
HuHot Mongolian Grill,Sioux City,"4229 S Lakeport St, Sioux City, IA 51106",Sioux City,-96.3479,42.4391,"Asian, Chinese",25,Dollar($),No,No,No,2,3.6,Yellow,Good,94,United States
Hunan Palace,Sioux City,"3523 Singing Hills Blvd, Sioux City, IA 51106",Sioux City,-96.362,42.4375,Chinese,25,Dollar($),No,No,No,2,3.8,Yellow,Good,129,United States
Jerry's Pizza,Sioux City,"1417 Morningside Ave, Sioux City, IA 51106",Sioux City,-96.3596,42.4764,Pizza,25,Dollar($),No,No,No,2,3.8,Yellow,Good,178,United States
Jim's Burgers,Sioux City,"800 Pierce St, Sioux City, IA 51101",Sioux City,-96.4048,42.4985,Burger,10,Dollar($),No,No,No,1,3.7,Yellow,Good,97,United States
Johnnie Mars,Sioux City,"2401 5th St, Sioux City, IA 51101",Sioux City,-96.378049,42.495534,"American, Desserts, Diner",10,Dollar($),No,No,No,1,3.9,Yellow,Good,161,United States
Miles Inn,Sioux City,"2622 Leech Ave, Sioux City, IA 51106",Sioux City,-96.3755,42.4876,American,10,Dollar($),No,No,No,1,3.7,Yellow,Good,122,United States
Milwaukee Wiener House,Sioux City,"301 Douglas St, Sioux City, IA 51101",Sioux City,-96.4063904,42.4930681,"American, Fast Food",10,Dollar($),No,No,No,1,3.8,Yellow,Good,195,United States
Minerva's Food & Cocktails,Sioux City,"2945 Hamilton Blvd, Sioux City, IA 51104",Sioux City,-96.418,42.5212,"American, Seafood, Steak",40,Dollar($),No,No,No,3,3.7,Yellow,Good,146,United States
Monterrey Mexican Restaurant,Sioux City,"3138 Singing Hills Blvd, Sioux City, IA 51106",Sioux City,-96.3691,42.4351,Mexican,10,Dollar($),No,No,No,1,3.7,Yellow,Good,117,United States
Rebos,Sioux City,"1107 4th St, Sioux City, IA 51101",Sioux City,-96.3959487,42.4944454,"Caribbean, Mexican, Cajun",25,Dollar($),No,No,No,2,3.8,Yellow,Good,187,United States
Tokyo Japanese Steakhouse & Sushi Bar,Sioux City,"4567 Southern Hills Drive, Sioux City, IA 51106",Sioux City,-96.349464,42.440592,"Japanese, Steak, Sushi",40,Dollar($),No,No,No,3,3.9,Yellow,Good,239,United States
Diamond Thai Cuisine,Sioux City,"515 W 7th St, Sioux City, IA 51103",Sioux City,-96.4136,42.5011,"Asian, Thai, Vegetarian",10,Dollar($),No,No,No,1,4.0,Green,Very Good,303,United States
El Fredo Pizza,Sioux City,"523 W 19th St, Sioux City, IA 51103",Sioux City,-96.4204,42.5106,Pizza,40,Dollar($),No,No,No,3,4.0,Green,Very Good,280,United States
Trattoria Fresco,Sioux City,"416 Jackson St., Sioux City, IA 51101",Sioux City,-96.4019631,42.4949153,Italian,25,Dollar($),No,No,No,2,4.0,Green,Very Good,271,United States
Kahill's Steak-Fish Chophouse,Sioux City,"385 E 4th St, South Sioux City, IA 68776",South Sioux City,-96.4092028,42.485608,"American, Seafood, Steak",70,Dollar($),No,No,No,4,3.5,Yellow,Good,58,United States
Rumba Island Bar & Grill,Tampa Bay,"1800 Gulf To Bay Blvd, Clearwater, FL 33765",Clearwater,-82.762624,27.96076,"BBQ, Caribbean, Seafood",25,Dollar($),No,No,No,2,4.6,Dark Green,Excellent,1321,United States
Red Mesa Cantina,Tampa Bay,"128 3rd St S, St Petersburg, FL 33701",Downtown St Petersburg,-82.636924,27.770026,"Latin American, Mexican, Southwestern",25,Dollar($),No,No,No,2,4.6,Dark Green,Excellent,1629,United States
BellaBrava,Tampa Bay,"204 Beach Drive Northeast, St Petersburg, FL 33701",Downtown St Petersburg,-82.6329663,27.7737426,"American, Italian, Seafood",25,Dollar($),No,No,No,2,4.1,Green,Very Good,921,United States
Ceviche Tapas Bar & Restaurant,Tampa Bay,"10 Beach Dr, St Petersburg, FL 33701",Downtown St Petersburg,-82.6333294,27.7711464,"Spanish, Tapas",25,Dollar($),No,No,No,2,4.1,Green,Very Good,986,United States
The Moon Under Water,Tampa Bay,"332 Beach Dr NE, St Petersburg, FL 33701",Downtown St Petersburg,-82.632174,27.775462,"British, Bar Food, Sandwich",25,Dollar($),No,No,No,2,4.1,Green,Very Good,1020,United States
Bern's Steak House,Tampa Bay,"1208 S Howard Ave, Tampa, FL 33606",Hyde Park,-82.482962,27.931516,"American, Desserts, Steak",70,Dollar($),No,No,No,4,4.7,Dark Green,Excellent,3157,United States
Boca Kitchen Bar Market,Tampa Bay,"901 W. Platt St., Tampa, FL 33606",Hyde Park,-82.46887,27.941942,Breakfast,40,Dollar($),No,No,No,3,3.9,Yellow,Good,665,United States
Edison: Food+Drink Lab,Tampa Bay,"912 W Kennedy Blvd, Tampa, FL 33606",Hyde Park,-82.469306,27.944244,International,70,Dollar($),No,No,No,4,3.9,Yellow,Good,373,United States
Ceviche Tapas Bar & Restaurant,Tampa Bay,"2500 W Azeele St, Tampa, FL 33609",Hyde Park,-82.4852372,27.9410382,"Breakfast, Spanish, Tapas",25,Dollar($),No,No,No,2,4.4,Green,Very Good,1007,United States
Daily Eats,Tampa Bay,"901 S Howard Avenue, Tampa, FL 33606",Hyde Park,-82.483124,27.935039,"American, Burger",25,Dollar($),No,No,No,2,4.4,Green,Very Good,803,United States
Salt Rock Grill,Tampa Bay,"19325 Gulf Blvd, Indian Shores, FL 33785",Indian Rocks/Indian Shores,-82.843253,27.848357,"American, Seafood, Steak",40,Dollar($),No,No,No,3,4.2,Green,Very Good,1363,United States
Mazzaro's Italian Market,Tampa Bay,"2909 22nd Ave N, St Petersburg, FL 33713",Kenwood,-82.673621,27.792047,"Italian, Deli",10,Dollar($),No,No,No,1,4.9,Dark Green,Excellent,1424,United States
Conch Republic Grill,Tampa Bay,"16699 Gulf Blvd, North Redington Beach, FL 33708",Madeira Beach/Redington Beach,-82.820856,27.816086,"Sandwich, Seafood, Steak",40,Dollar($),No,No,No,3,4.5,Dark Green,Excellent,844,United States
Mr. Dunderbak's Biergarten and Marketplatz,Tampa Bay,"14929 Bruce B Downs Blvd, Tampa, FL 33612",New Tampa,-82.41294,28.082909,"European, German",40,Dollar($),No,No,No,3,4.9,Dark Green,Excellent,1413,United States
Red Mesa Restaurant,Tampa Bay,"4912 4th St N, St Petersburg, FL 33703",Northeast St Petersburg,-82.638843,27.816848,"Breakfast, Mexican",40,Dollar($),No,No,No,3,4.5,Dark Green,Excellent,1203,United States
Datz,Tampa Bay,"2616 S Macdill Avenue, Tampa, FL 33629",Palma Ceia,-82.4932815,27.9219315,"Desserts, Bar Food",40,Dollar($),No,No,No,3,4.7,Dark Green,Excellent,3074,United States
Ella's Americana Folk Art Cafe,Tampa Bay,"5119 N Nebraska Ave, Tampa, FL 33603",Seminole Heights,-82.451041,27.993645,"International, Italian, Southern",40,Dollar($),No,No,No,3,4.8,Dark Green,Excellent,1715,United States
Taco Bus,Tampa Bay,"913 E Hillsborough Ave, Tampa, FL 33604",Seminole Heights,-82.449897,27.995964,"Mexican, Vegetarian",10,Dollar($),No,No,No,1,4.5,Dark Green,Excellent,1868,United States
The Refinery,Tampa Bay,"5137 N. Florida Ave., Tampa, FL 33603",Seminole Heights,-82.459339,27.99384,"Seafood, Steak",40,Dollar($),No,No,No,3,4.0,Green,Very Good,875,United States
Columbia Restaurant,Tampa Bay,"2117 E 7th Ave, Tampa, FL 33605",Ybor City,-82.4351499,27.959884,"Cuban, Spanish",40,Dollar($),No,No,No,3,4.4,Green,Very Good,1746,United States
1918 Bistro & Grill,Tanunda,"94 Murray St, Tanunda, SA",Tanunda,138.966064,-34.519619,"Modern Australian, Australian",30,Dollar($),No,No,No,3,4.4,Green,Very Good,339,Australia
Pig and Whistle,Trentham East,"Pearsons Rd, Trentham East, VIC",Trentham East,144.41272,-37.396942,Australian,20,Dollar($),No,No,No,2,4.1,Green,Very Good,87,Australia
Buffalo Wild Wings,Valdosta,"1553 Baytree Rd., Valdosta, GA 31602",Valdosta,-83.319123,30.846819,Bar Food,25,Dollar($),No,No,No,2,3.4,Orange,Average,98,United States
El Toreo Mexican Restaurant,Valdosta,"1713 Gornto Rd, Valdosta, GA 31601",Valdosta,-83.3247,30.8426,Mexican,25,Dollar($),No,No,No,2,3.1,Orange,Average,83,United States
306 North Restaurant,Valdosta,"306 N Patterson St, Valdosta, GA 31601",Valdosta,-83.2799,30.8332,"Seafood, Southern",40,Dollar($),No,No,No,3,3.9,Yellow,Good,231,United States
Austins Cattle Co,Valdosta,"2101 W Hill Ave, Valdosta, GA 31601",Valdosta,-83.3170843,30.8164364,"Burger, Seafood, Steak",40,Dollar($),No,No,No,3,3.7,Yellow,Good,216,United States
Beijing Cafe,Valdosta,"1715 C Norman Drive, Valdosta, GA 31601",Valdosta,-83.318554,30.841892,"Asian, Chinese, Thai",35,Dollar($),No,No,No,3,3.8,Yellow,Good,185,United States
Bleu Cafe,Valdosta,"125 N Patterson St, Valdosta, GA 31601",Valdosta,-83.279,30.8308,"Pizza, Sandwich",25,Dollar($),No,No,No,2,3.7,Yellow,Good,185,United States
Bleu Pub,Valdosta,"116 W Hill Ave, Valdosta, GA 31601",Valdosta,-83.2792,30.8308,"Burger, Bar Food, Vegetarian",10,Dollar($),No,No,No,1,3.8,Yellow,Good,281,United States
Bubba Jax Crab Shack,Valdosta,"1700 W Hill Ave, Valdosta, GA 31601",Valdosta,-83.3085736,30.8223548,"Fast Food, Seafood",40,Dollar($),No,No,No,3,3.7,Yellow,Good,137,United States
Cheddar's Scratch Kitchen,Valdosta,"270 Norman Drive, Valdosta, GA 31601",Valdosta,-83.316402,30.824691,American,25,Dollar($),No,No,No,2,3.7,Yellow,Good,209,United States
El Cazador,Valdosta,"1600 N. Ashley St., Valdosta, GA 31602",Valdosta,-83.28078,30.850888,Mexican,10,Dollar($),No,No,No,1,3.7,Yellow,Good,168,United States
Friends Grille and Bar,Valdosta,"3338-B Country Club Rd, GA 31605",Valdosta,-83.29633,30.880146,"American, Southern",25,Dollar($),No,No,No,2,3.9,Yellow,Good,243,United States
Giulios Greek & Italian Restaurant,Valdosta,"105 E Ann St, Valdosta, GA 31601",Valdosta,-83.2851,30.8433,"Greek, Italian",40,Dollar($),No,No,No,3,3.8,Yellow,Good,221,United States
La Jalisco Supermercato,Valdosta,"1300 N. Ashley St., Valdosta, GA 31601",Valdosta,-83.281,30.8465,Mexican,10,Dollar($),No,No,No,1,3.5,Yellow,Good,46,United States
Masato Japanese,Valdosta,"1337 Baytree Rd, Valdosta, GA 31602",Valdosta,-83.310343,30.846763,"Japanese, Sushi",25,Dollar($),No,No,No,2,3.9,Yellow,Good,262,United States
Mom & Dad's Italian Restaurant,Valdosta,"4143 N Valdosta Rd, Valdosta, GA 31602",Valdosta,-83.3283,30.8971,Italian,25,Dollar($),No,No,No,2,3.7,Yellow,Good,183,United States
